[{"name":"Ludwig Abeille","birth_year":"1761","death_year":"1838","href":"https://de.wikipedia.org/wiki/Ludwig_Abeille","birth_place":"Bayreuth","death_place":"Stuttgart","birth_loc":{"lat":"49.9427202","lon":"11.5763079"},"death_loc":{"lat":"48.7784485","lon":"9.1800132"}},{"name":"Carl Friedrich Abel","birth_year":"1723","death_year":"1787","href":"https://de.wikipedia.org/wiki/Carl_Friedrich_Abel","birth_place":"Köthen ","death_place":"London","birth_loc":{"lat":"51.7500048","lon":"11.9666985"},"death_loc":{"lat":"51.5073219","lon":"-0.1276474"}},{"name":"Clamor Heinrich Abel","birth_year":"1634","death_year":"1696","href":"https://de.wikipedia.org/wiki/Clamor_Heinrich_Abel","birth_place":"Burg Hünnefeld bei Bad Essen/Westfalen","death_place":"Bremen"},{"name":"Ludwig Abel","birth_year":"1835","death_year":"1895","href":"https://de.wikipedia.org/wiki/Ludwig_Abel_(Musiker)","birth_place":"Eckartsberga","death_place":"Pasing bei München","birth_loc":{"lat":"51.1231891","lon":"11.5604073"},"death_loc":{"lat":"48.1499561","lon":"11.4617667"}},{"name":"Otto Abel","birth_year":"1905","death_year":"1977","href":"https://de.wikipedia.org/wiki/Otto_Abel_(Komponist)","birth_place":"Berlin","death_place":"Tettnang","birth_loc":{"lat":"52.5170365","lon":"13.3888599"},"death_loc":{"lat":"47.6716558","lon":"9.5891158"}},{"name":"Walter Abendroth","birth_year":"1896","death_year":"1973","href":"https://de.wikipedia.org/wiki/Walter_Abendroth","birth_place":"Hannover","death_place":"Fischbachau","birth_loc":{"lat":"52.3744779","lon":"9.7385532"},"death_loc":{"lat":"47.7195927","lon":"11.9517515"}},{"name":"Franz Abt","birth_year":"1819","death_year":"1885","href":"https://de.wikipedia.org/wiki/Franz_Abt","birth_place":"Eilenburg","death_place":"Wiesbaden","birth_loc":{"lat":"51.4598924","lon":"12.6334496"},"death_loc":{"lat":"50.0820384","lon":"8.2416556"}},{"name":"Anton Cajetan Adlgasser","birth_year":"1729","death_year":"1777","href":"https://de.wikipedia.org/wiki/Anton_Cajetan_Adlgasser","birth_place":"Inzell-Niederachen","death_place":"Salzburg","birth_loc":{"lat":"47.7604443","lon":"12.738754"},"death_loc":{"lat":"47.7981346","lon":"13.0464806"}},{"name":"Theodor Ludwig Wiesengrund Adorno","birth_year":"1903","death_year":"1969","href":"https://de.wikipedia.org/wiki/Theodor_W._Adorno","birth_place":"Frankfurt am Main","death_place":"Visp","birth_loc":{"lat":"50.1106444","lon":"8.6820917"},"death_loc":{"lat":"46.11758005","lon":"7.86647654453307"}},{"name":"Johann Friedrich Agricola","birth_year":"1720","death_year":"1774","href":"https://de.wikipedia.org/wiki/Johann_Friedrich_Agricola","birth_place":"Dobitschen","death_place":"Berlin","birth_loc":{"lat":"50.9553828","lon":"12.2786429"},"death_loc":{"lat":"52.5170365","lon":"13.3888599"}},{"name":"Martin Agricola","birth_year":"1486","death_year":"1556","href":"https://de.wikipedia.org/wiki/Martin_Agricola","birth_place":"Schwiebus","death_place":"Magdeburg","birth_loc":{"lat":"52.2498357","lon":"15.5324973"},"death_loc":{"lat":"52.1315889","lon":"11.6399609"}},{"name":"Carl Christian Agthe","birth_year":"1762","death_year":"1797","href":"https://de.wikipedia.org/wiki/Carl_Christian_Agthe","birth_place":"Hettstedt","death_place":"Ballenstedt","birth_loc":{"lat":"51.6500047","lon":"11.4999986"},"death_loc":{"lat":"51.722527","lon":"11.2290268"}},{"name":"Johann Rudolph Ahle","birth_year":"1625","death_year":"1673","href":"https://de.wikipedia.org/wiki/Johann_Rudolph_Ahle","birth_place":"Mühlhausen/Thüringen","death_place":"Mühlhausen/Thüringen","birth_loc":{"lat":"51.2094255","lon":"10.4589044"},"death_loc":{"lat":"51.2094255","lon":"10.4589044"}},{"name":"Eugen d’Albert","birth_year":"1864","death_year":"1932","href":"https://de.wikipedia.org/wiki/Eugen_d%E2%80%99Albert","birth_place":"Glasgow","death_place":"Riga","birth_loc":{"lat":"55.8609825","lon":"-4.2488787"},"death_loc":{"lat":"56.9493977","lon":"24.1051846"}},{"name":"Heinrich Albert","birth_year":"1604","death_year":"1651","href":"https://de.wikipedia.org/wiki/Heinrich_Albert_(Komponist)","birth_place":"Lobenstein","death_place":"Königsberg","birth_loc":{"lat":"50.0471497","lon":"17.7450967"},"death_loc":{"lat":"54.710128","lon":"20.5105838"}},{"name":"Heinrich Albert","birth_year":"1870","death_year":"1950","href":"https://de.wikipedia.org/wiki/Heinrich_Albert_(Gitarrist)","birth_place":"Würzburg","death_place":"München","birth_loc":{"lat":"49.79245","lon":"9.932966"},"death_loc":{"lat":"48.1371079","lon":"11.5753822"}},{"name":"Christoph Albrecht","birth_year":"1930","death_year":"2016","href":"https://de.wikipedia.org/wiki/Christoph_Albrecht_(Komponist)","birth_place":"Salzwedel","death_place":"Berlin","birth_loc":{"lat":"52.8528456","lon":"11.1539699"},"death_loc":{"lat":"52.5170365","lon":"13.3888599"}},{"name":"Johann Georg Albrechtsberger","birth_year":"1736","death_year":"1809","href":"https://de.wikipedia.org/wiki/Johann_Georg_Albrechtsberger","birth_place":"Klosterneuburg","death_place":"Wien","birth_loc":{"lat":"48.30499","lon":"16.323756"},"death_loc":{"lat":"48.2083537","lon":"16.3725042"}},{"name":"Leni Alexander","birth_year":"1924","death_year":"2005","href":"https://de.wikipedia.org/wiki/Leni_Alexander","birth_place":"Breslau","death_place":"Santiago de Chile","birth_loc":{"lat":"51.1089776","lon":"17.0326689"},"death_loc":{"lat":"-33.4377968","lon":"-70.6504451"}},{"name":"Johann Ernst Altenburg","birth_year":"1734","death_year":"1801","href":"https://de.wikipedia.org/wiki/Johann_Ernst_Altenburg","birth_place":"Weißenfels","death_place":"Bitterfeld","birth_loc":{"lat":"51.1999793","lon":"11.9667857"},"death_loc":{"lat":"51.6239124","lon":"12.3301466"}},{"name":"Michael Altenburg","birth_year":"1584","death_year":"1640","href":"https://de.wikipedia.org/wiki/Michael_Altenburg","birth_place":"Alach bei Erfurt","death_place":"Erfurt","birth_loc":{"lat":"50.9874419","lon":"10.9285512"},"death_loc":{"lat":"50.9777974","lon":"11.0287364"}},{"name":"Anna Amalie, Prinzessin von Preußen","birth_year":"1723","death_year":"1787","href":"https://de.wikipedia.org/wiki/Amalie_von_Preu%C3%9Fen","birth_place":"Berlin","death_place":"Berlin","birth_loc":{"lat":"52.5170365","lon":"13.3888599"},"death_loc":{"lat":"52.5170365","lon":"13.3888599"}},{"name":"Hermann Ambrosius","birth_year":"1897","death_year":"1983","href":"https://de.wikipedia.org/wiki/Hermann_Ambrosius","birth_place":"Hamburg","death_place":"Engen","birth_loc":{"lat":"53.550341","lon":"10.000654"},"death_loc":{"lat":"47.8532383","lon":"8.7704457"}},{"name":"Johann André","birth_year":"1741","death_year":"1799","href":"https://de.wikipedia.org/wiki/Johann_Andr%C3%A9","birth_place":"Offenbach am Main","death_place":"Offenbach am Main","birth_loc":{"lat":"50.1055002","lon":"8.7610698"},"death_loc":{"lat":"50.1055002","lon":"8.7610698"}},{"name":"Johann Anton André","birth_year":"1775","death_year":"1842","href":"https://de.wikipedia.org/wiki/Johann_Anton_Andr%C3%A9","birth_place":"Offenbach am Main","death_place":"Offenbach am Main","birth_loc":{"lat":"50.1055002","lon":"8.7610698"},"death_loc":{"lat":"50.1055002","lon":"8.7610698"}},{"name":"Anna Amalia, Herzogin von Sachsen-Weimar-Eisenach","birth_year":"1739","death_year":"1807","href":"https://de.wikipedia.org/wiki/Anna_Amalia_von_Sachsen-Weimar-Eisenach","birth_place":"Wolfenbüttel","death_place":"Weimar","birth_loc":{"lat":"52.1625283","lon":"10.5348215"},"death_loc":{"lat":"50.9802813","lon":"11.3290855"}},{"name":"Georg Daniel Auberlen","birth_year":"1728","death_year":"1784","href":"https://de.wikipedia.org/wiki/Georg_Daniel_Auberlen","birth_place":"Endersbach","death_place":"Fellbach","birth_loc":{"lat":"50.9467066","lon":"9.6425564"},"death_loc":{"lat":"48.8181556","lon":"9.278085"}},{"name":"Wilhelm Amandus Auberlen","birth_year":"1798","death_year":"1874","href":"https://de.wikipedia.org/wiki/Wilhelm_Amandus_Auberlen","birth_place":"Fellbach","death_place":"Fellbach","birth_loc":{"lat":"48.8181556","lon":"9.278085"},"death_loc":{"lat":"48.8181556","lon":"9.278085"}},{"name":"August Wilhelm Bach","birth_year":"1796","death_year":"1869","href":"https://de.wikipedia.org/wiki/August_Wilhelm_Bach","birth_place":"Berlin","death_place":"Berlin","birth_loc":{"lat":"52.5170365","lon":"13.3888599"},"death_loc":{"lat":"52.5170365","lon":"13.3888599"}},{"name":"Carl Philipp Emanuel Bach","birth_year":"1714","death_year":"1788","href":"https://de.wikipedia.org/wiki/Carl_Philipp_Emanuel_Bach","birth_place":"Weimar","death_place":"Hamburg","birth_loc":{"lat":"50.9802813","lon":"11.3290855"},"death_loc":{"lat":"53.550341","lon":"10.000654"}},{"name":"Gottlieb Friedrich Bach","birth_year":"1714","death_year":"1785","href":"https://de.wikipedia.org/wiki/Gottlieb_Friedrich_Bach","birth_place":"Meiningen","death_place":"Meiningen","birth_loc":{"lat":"50.57342505","lon":"10.4283711376078"},"death_loc":{"lat":"50.57342505","lon":"10.4283711376078"}},{"name":"Heinrich Bach","birth_year":"1615","death_year":"1692","href":"https://de.wikipedia.org/wiki/Heinrich_Bach_(Organist)","birth_place":"Wechmar","death_place":"Arnstadt","birth_loc":{"lat":"50.8916042","lon":"10.7779129"},"death_loc":{"lat":"50.8349097","lon":"10.9461479"}},{"name":"Johann Ambrosius Bach","birth_year":"1645","death_year":"1695","href":"https://de.wikipedia.org/wiki/Johann_Ambrosius_Bach","birth_place":"Erfurt","death_place":"Eisenach","birth_loc":{"lat":"50.9777974","lon":"11.0287364"},"death_loc":{"lat":"50.9833","lon":"10.3166999"}},{"name":"Johann Bernhard Bach der Ältere","birth_year":"1676","death_year":"1749","href":"https://de.wikipedia.org/wiki/Johann_Bernhard_Bach_der_%C3%84ltere","birth_place":"Erfurt","death_place":"Eisenach","birth_loc":{"lat":"50.9777974","lon":"11.0287364"},"death_loc":{"lat":"50.9833","lon":"10.3166999"}},{"name":"Johann Bernhard Bach der Jüngere","birth_year":"1700","death_year":"1743","href":"https://de.wikipedia.org/wiki/Johann_Bernhard_Bach_der_J%C3%BCngere","birth_place":"Ohrdruf","death_place":"","birth_loc":{"lat":"50.8270085","lon":"10.7319499"}},{"name":"Johann Christian Bach","birth_year":"1735","death_year":"1782","href":"https://de.wikipedia.org/wiki/Johann_Christian_Bach","birth_place":"Leipzig","death_place":"London","birth_loc":{"lat":"51.3406321","lon":"12.3747329"},"death_loc":{"lat":"51.5073219","lon":"-0.1276474"}},{"name":"Johann Christoph Bach d. Ä.","birth_year":"1645","death_year":"1693","href":"https://de.wikipedia.org/wiki/Johann_Christoph_Bach_d._%C3%84.","birth_place":"Erfurt","death_place":"Arnstadt","birth_loc":{"lat":"50.9777974","lon":"11.0287364"},"death_loc":{"lat":"50.8349097","lon":"10.9461479"}},{"name":"Johann Christoph Friedrich Bach","birth_year":"1732","death_year":"1795","href":"https://de.wikipedia.org/wiki/Johann_Christoph_Friedrich_Bach","birth_place":"Leipzig","death_place":"Bückeburg","birth_loc":{"lat":"51.3406321","lon":"12.3747329"},"death_loc":{"lat":"52.2611037","lon":"9.0488959"}},{"name":"Johann Egidius Bach","birth_year":"1645","death_year":"1716","href":"https://de.wikipedia.org/wiki/Johann_Egidius_Bach","birth_place":"Erfurt","death_place":"Erfurt","birth_loc":{"lat":"50.9777974","lon":"11.0287364"},"death_loc":{"lat":"50.9777974","lon":"11.0287364"}},{"name":"Johann Elias Bach","birth_year":"1705","death_year":"1755","href":"https://de.wikipedia.org/wiki/Johann_Elias_Bach","birth_place":"Schweinfurt","death_place":"Schweinfurt","birth_loc":{"lat":"50.0499945","lon":"10.233302"},"death_loc":{"lat":"50.0499945","lon":"10.233302"}},{"name":"Johann Ernst Bach","birth_year":"1722","death_year":"1777","href":"https://de.wikipedia.org/wiki/Johann_Ernst_Bach_II","birth_place":"Eisenach","death_place":"Eisenach","birth_loc":{"lat":"50.9833","lon":"10.3166999"},"death_loc":{"lat":"50.9833","lon":"10.3166999"}},{"name":"Johann Ludwig Bach","birth_year":"1677","death_year":"1731","href":"https://de.wikipedia.org/wiki/Johann_Ludwig_Bach","birth_place":"Thal bei Eisenach","death_place":"Meiningen","birth_loc":{"lat":"47.07735","lon":"15.358318"},"death_loc":{"lat":"50.57342505","lon":"10.4283711376078"}},{"name":"Johann Lorenz Bach","birth_year":"1695","death_year":"1773","href":"https://de.wikipedia.org/wiki/Johann_Lorenz_Bach","birth_place":"Schweinfurt","death_place":"Lahm","birth_loc":{"lat":"50.0499945","lon":"10.233302"},"death_loc":{"lat":"50.2565059","lon":"11.0396495"}},{"name":"Johann Nikolaus Bach","birth_year":"1669","death_year":"1753","href":"https://de.wikipedia.org/wiki/Johann_Nikolaus_Bach_(Komponist)","birth_place":"Eisenach","death_place":"Jena","birth_loc":{"lat":"50.9833","lon":"10.3166999"},"death_loc":{"lat":"50.9281717","lon":"11.5879359"}},{"name":"Johann Philipp Bach","birth_year":"1752","death_year":"1846","href":"https://de.wikipedia.org/wiki/Johann_Philipp_Bach","birth_place":"Meiningen","death_place":"Meiningen","birth_loc":{"lat":"50.57342505","lon":"10.4283711376078"},"death_loc":{"lat":"50.57342505","lon":"10.4283711376078"}},{"name":"Johann Sebastian Bach","birth_year":"1685","death_year":"1750","href":"https://de.wikipedia.org/wiki/Johann_Sebastian_Bach","birth_place":"Eisenach","death_place":"Leipzig","birth_loc":{"lat":"50.9833","lon":"10.3166999"},"death_loc":{"lat":"51.3406321","lon":"12.3747329"}},{"name":"Wilhelm Friedemann Bach","birth_year":"1710","death_year":"1784","href":"https://de.wikipedia.org/wiki/Wilhelm_Friedemann_Bach","birth_place":"Weimar","death_place":"Berlin","birth_loc":{"lat":"50.9802813","lon":"11.3290855"},"death_loc":{"lat":"52.5170365","lon":"13.3888599"}},{"name":"Wilhelm Friedrich Ernst Bach","birth_year":"1759","death_year":"1845","href":"https://de.wikipedia.org/wiki/Wilhelm_Friedrich_Ernst_Bach","birth_place":"Bückeburg","death_place":"Berlin","birth_loc":{"lat":"52.2611037","lon":"9.0488959"},"death_loc":{"lat":"52.5170365","lon":"13.3888599"}},{"name":"Heinrich Backofen","birth_year":"1768","death_year":"1830","href":"https://de.wikipedia.org/wiki/Heinrich_Backofen","birth_place":"Durlach","death_place":"Darmstadt","birth_loc":{"lat":"48.9942725","lon":"8.45870923351434"},"death_loc":{"lat":"49.872775","lon":"8.651177"}},{"name":"Selmar Bagge","birth_year":"1823","death_year":"1896","href":"https://de.wikipedia.org/wiki/Selmar_Bagge","birth_place":"Coburg","death_place":"Basel","birth_loc":{"lat":"50.258112","lon":"10.964463"},"death_loc":{"lat":"47.5581077","lon":"7.5878261"}},{"name":"Woldemar Bargiel","birth_year":"1828","death_year":"1897","href":"https://de.wikipedia.org/wiki/Woldemar_Bargiel","birth_place":"Berlin","death_place":"Berlin","birth_loc":{"lat":"52.5170365","lon":"13.3888599"},"death_loc":{"lat":"52.5170365","lon":"13.3888599"}},{"name":"Ernst Gottlieb Baron","birth_year":"1696","death_year":"1760","href":"https://de.wikipedia.org/wiki/Ernst_Gottlieb_Baron","birth_place":"Breslau","death_place":"Berlin","birth_loc":{"lat":"51.1089776","lon":"17.0326689"},"death_loc":{"lat":"52.5170365","lon":"13.3888599"}},{"name":"Jürg Baur","birth_year":"1918","death_year":"2010","href":"https://de.wikipedia.org/wiki/J%C3%BCrg_Baur","birth_place":"Düsseldorf","death_place":"Düsseldorf","birth_loc":{"lat":"51.2254018","lon":"6.7763137"},"death_loc":{"lat":"51.2254018","lon":"6.7763137"}},{"name":"Waldemar von Baußnern","birth_year":"1866","death_year":"1931","href":"https://de.wikipedia.org/wiki/Waldemar_von_Bau%C3%9Fnern","birth_place":"Berlin","death_place":"Potsdam","birth_loc":{"lat":"52.5170365","lon":"13.3888599"},"death_loc":{"lat":"52.4009309","lon":"13.0591397"}},{"name":"Günther Becker","birth_year":"1924","death_year":"2007","href":"https://de.wikipedia.org/wiki/G%C3%BCnther_Becker_(Komponist)","birth_place":"Forbach","death_place":"Bad Lippspringe","birth_loc":{"lat":"49.1862822","lon":"6.8958562"},"death_loc":{"lat":"51.7833","lon":"8.81667"}},{"name":"Hugo Becker","birth_year":"1863","death_year":"1941","href":"https://de.wikipedia.org/wiki/Hugo_Becker_(Cellist)","birth_place":"Straßburg","death_place":"Geiselgasteig","birth_loc":{"lat":"48.584614","lon":"7.7507127"},"death_loc":{"lat":"48.0626315","lon":"11.5479446"}},{"name":"Alfred von Beckerath","birth_year":"1901","death_year":"1978","href":"https://de.wikipedia.org/wiki/Alfred_von_Beckerath","birth_place":"Hagenau[1]","death_place":"München","birth_loc":{"lat":"52.400091","lon":"4.940482"},"death_loc":{"lat":"48.1371079","lon":"11.5753822"}},{"name":"Ignaz von Beecke","birth_year":"1733","death_year":"1803","href":"https://de.wikipedia.org/wiki/Ignaz_von_Beecke","birth_place":"Wimpfen am Neckar","death_place":"Wallerstein","birth_loc":{"lat":"49.2605389","lon":"9.1472759"},"death_loc":{"lat":"48.8870756","lon":"10.476036"}},{"name":"Anton Beer-Walbrunn","birth_year":"1864","death_year":"1929","href":"https://de.wikipedia.org/wiki/Anton_Beer-Walbrunn","birth_place":"Kohlberg","death_place":"München","birth_loc":{"lat":"49.592149","lon":"12.0212706"},"death_loc":{"lat":"48.1371079","lon":"11.5753822"}},{"name":"Ludwig van Beethoven","birth_year":"1770","death_year":"1827","href":"https://de.wikipedia.org/wiki/Ludwig_van_Beethoven","birth_place":"Wien","death_place":"Wien","birth_loc":{"lat":"48.2083537","lon":"16.3725042"},"death_loc":{"lat":"48.2083537","lon":"16.3725042"}},{"name":"Wilhelm Berger","birth_year":"1861","death_year":"1911","href":"https://de.wikipedia.org/wiki/Wilhelm_Berger_(Komponist)","birth_place":"Boston","death_place":"Jena","birth_loc":{"lat":"42.3602534","lon":"-71.0582912"},"death_loc":{"lat":"50.9281717","lon":"11.5879359"}},{"name":"Christoph Bernhard","birth_year":"1628","death_year":"1692","href":"https://de.wikipedia.org/wiki/Christoph_Bernhard","birth_place":"Kolberg","death_place":"Dresden","birth_loc":{"lat":"54.1759614","lon":"15.5764209"},"death_loc":{"lat":"51.0493286","lon":"13.7381437"}},{"name":"Otto Besch","birth_year":"1885","death_year":"1966","href":"https://de.wikipedia.org/wiki/Otto_Besch","birth_place":"Neuhausen","death_place":"Kassel","birth_loc":{"lat":"47.6811644","lon":"8.6197347"},"death_loc":{"lat":"51.3154546","lon":"9.4924096"}},{"name":"Frank Michael Beyer","birth_year":"1928","death_year":"2008","href":"https://de.wikipedia.org/wiki/Frank_Michael_Beyer","birth_place":"Berlin","death_place":"Berlin","birth_loc":{"lat":"52.5170365","lon":"13.3888599"},"death_loc":{"lat":"52.5170365","lon":"13.3888599"}},{"name":"Johann Samuel Beyer","birth_year":"1669","death_year":"1744","href":"https://de.wikipedia.org/wiki/Johann_Samuel_Beyer","birth_place":"Gotha","death_place":"Karlsbad","birth_loc":{"lat":"50.9462725","lon":"10.6945265"},"death_loc":{"lat":"50.2304694","lon":"12.8710769"}},{"name":"Günter Bialas","birth_year":"1907","death_year":"1995","href":"https://de.wikipedia.org/wiki/G%C3%BCnter_Bialas","birth_place":"Bielschowitz","death_place":"Glonn","birth_loc":{"lat":"50.2708961","lon":"18.8257875557366"},"death_loc":{"lat":"47.9878929","lon":"11.8656334"}},{"name":"Franz Biebl","birth_year":"1906","death_year":"2001","href":"https://de.wikipedia.org/wiki/Franz_Biebl","birth_place":"Pursruck","death_place":"München","birth_loc":{"lat":"49.4887224","lon":"11.945908"},"death_loc":{"lat":"48.1371079","lon":"11.5753822"}},{"name":"Helmut Bieler","birth_year":"1940","death_year":"2019","href":"https://de.wikipedia.org/wiki/Helmut_Bieler_(Komponist)","birth_place":"Gersfeld ","death_place":"Rimsting[1]","birth_loc":{"lat":"50.45","lon":"9.91667"},"death_loc":{"lat":"47.878595","lon":"12.337959"}},{"name":"Benjamin Bilse","birth_year":"1816","death_year":"1902","href":"https://de.wikipedia.org/wiki/Benjamin_Bilse","birth_place":"Liegnitz","death_place":"Liegnitz","birth_loc":{"lat":"51.2081617","lon":"16.1603187"},"death_loc":{"lat":"51.2081617","lon":"16.1603187"}},{"name":"Boris Blacher","birth_year":"1903","death_year":"1975","href":"https://de.wikipedia.org/wiki/Boris_Blacher","birth_place":"Newchwang ","death_place":"Berlin","birth_loc":{"lat":"40.237605","lon":"122.107544"},"death_loc":{"lat":"52.5170365","lon":"13.3888599"}},{"name":"Leo Blech","birth_year":"1871","death_year":"1958","href":"https://de.wikipedia.org/wiki/Leo_Blech","birth_place":"Aachen","death_place":"Berlin","birth_loc":{"lat":"50.776351","lon":"6.083862"},"death_loc":{"lat":"52.5170365","lon":"13.3888599"}},{"name":"Theodor Blumer","birth_year":"1881","death_year":"1964","href":"https://de.wikipedia.org/wiki/Theodor_Blumer","birth_place":"Dresden","death_place":"West-Berlin","birth_loc":{"lat":"51.0493286","lon":"13.7381437"},"death_loc":{"lat":"44.0742673","lon":"-64.5827869"}},{"name":"Martin Traugott Blumner","birth_year":"1827","death_year":"1901","href":"https://de.wikipedia.org/wiki/Martin_Traugott_Blumner","birth_place":"Fürstenberg/Havel","death_place":"Berlin","birth_loc":{"lat":"53.1844661","lon":"13.1482276"},"death_loc":{"lat":"52.5170365","lon":"13.3888599"}},{"name":"Erhard Bodenschatz","birth_year":"1576","death_year":"1636","href":"https://de.wikipedia.org/wiki/Erhard_Bodenschatz","birth_place":"Lichtenberg","death_place":"Groß-Osterhausen","birth_loc":{"lat":"48.9212959","lon":"7.4812268"}},{"name":"Georg Böhm","birth_year":"1661","death_year":"1733","href":"https://de.wikipedia.org/wiki/Georg_B%C3%B6hm_(Komponist)","birth_place":"Hohenkirchen","death_place":"Lüneburg","birth_loc":{"lat":"53.9165447","lon":"11.3066229"},"death_loc":{"lat":"53.248706","lon":"10.407855"}},{"name":"Johann Ludwig Böhner","birth_year":"1787","death_year":"1860","href":"https://de.wikipedia.org/wiki/Johann_Ludwig_B%C3%B6hner","birth_place":"Töttelstädt","death_place":"Gotha","birth_loc":{"lat":"51.0084987","lon":"10.8846458"},"death_loc":{"lat":"50.9462725","lon":"10.6945265"}},{"name":"Hans Boll","birth_year":"1923","death_year":"2016","href":"https://de.wikipedia.org/wiki/Hans_Boll","birth_place":"Apolda/Thüringen","death_place":"Berlin","birth_loc":{"lat":"51.0227878","lon":"11.5129742"},"death_loc":{"lat":"52.5170365","lon":"13.3888599"}},{"name":"Giuseppe Bonno","birth_year":"1711","death_year":"1788","href":"https://de.wikipedia.org/wiki/Giuseppe_Bonno","birth_place":"Wien","death_place":"Wien","birth_loc":{"lat":"48.2083537","lon":"16.3725042"},"death_loc":{"lat":"48.2083537","lon":"16.3725042"}},{"name":"Siegfried Borris","birth_year":"1906","death_year":"1987","href":"https://de.wikipedia.org/wiki/Siegfried_Borris","birth_place":"Berlin","death_place":"Berlin als Siegfried Jakob Borris Zuckermann","birth_loc":{"lat":"52.5170365","lon":"13.3888599"}},{"name":"Johannes Brahms","birth_year":"1833","death_year":"1897","href":"https://de.wikipedia.org/wiki/Johannes_Brahms","birth_place":"Hamburg","death_place":"Wien","birth_loc":{"lat":"53.550341","lon":"10.000654"},"death_loc":{"lat":"48.2083537","lon":"16.3725042"}},{"name":"Caspar Joseph Brambach","birth_year":"1833","death_year":"1902","href":"https://de.wikipedia.org/wiki/Caspar_Joseph_Brambach","birth_place":"Oberdollendorf","death_place":"Bonn","birth_loc":{"lat":"50.70145915","lon":"7.19414816287983"},"death_loc":{"lat":"50.735851","lon":"7.10066"}},{"name":"Theo Brandmüller","birth_year":"1948","death_year":"2012","href":"https://de.wikipedia.org/wiki/Theo_Brandm%C3%BCller","birth_place":"Mainz","death_place":"Saarbrücken[1]","birth_loc":{"lat":"50.0012314","lon":"8.2762513"},"death_loc":{"lat":"41.702454","lon":"44.804501"}},{"name":"Walter Braunfels","birth_year":"1882","death_year":"1954","href":"https://de.wikipedia.org/wiki/Walter_Braunfels","birth_place":"Frankfurt am Main","death_place":"Köln","birth_loc":{"lat":"50.1106444","lon":"8.6820917"},"death_loc":{"lat":"50.938361","lon":"6.959974"}},{"name":"Reiner Bredemeyer","birth_year":"1929","death_year":"1995","href":"https://de.wikipedia.org/wiki/Reiner_Bredemeyer","birth_place":"Vélez","death_place":"Berlin","birth_loc":{"lat":"6.0123632","lon":"-73.6729598"},"death_loc":{"lat":"52.5170365","lon":"13.3888599"}},{"name":"Max Bruch","birth_year":"1838","death_year":"1920","href":"https://de.wikipedia.org/wiki/Max_Bruch","birth_place":"Köln","death_place":"Berlin","birth_loc":{"lat":"50.938361","lon":"6.959974"},"death_loc":{"lat":"52.5170365","lon":"13.3888599"}},{"name":"Kurt Brüggemann","birth_year":"1908","death_year":"2002","href":"https://de.wikipedia.org/wiki/Kurt_Br%C3%BCggemann_(Musiker)","birth_place":"Berlin","death_place":"","birth_loc":{"lat":"52.5170365","lon":"13.3888599"}},{"name":"Nicolaus Bruhns","birth_year":"1665","death_year":"1697","href":"https://de.wikipedia.org/wiki/Nicolaus_Bruhns","birth_place":"Schwabstedt","death_place":"Husum","birth_loc":{"lat":"54.3959428","lon":"9.1895343"},"death_loc":{"lat":"54.4853638","lon":"9.0538156"}},{"name":"Philipp Friedrich Buchner","birth_year":"1614","death_year":"1669","href":"https://de.wikipedia.org/wiki/Philipp_Friedrich_Buchner","birth_place":"Wertheim","death_place":"Würzburg","birth_loc":{"lat":"49.7614982","lon":"9.5155411"},"death_loc":{"lat":"49.79245","lon":"9.932966"}},{"name":"Fritz Büchtger","birth_year":"1903","death_year":"1978","href":"https://de.wikipedia.org/wiki/Fritz_B%C3%BCchtger","birth_place":"München","death_place":"Starnberg","birth_loc":{"lat":"48.1371079","lon":"11.5753822"},"death_loc":{"lat":"48.0001038","lon":"11.3508972"}},{"name":"Hans von Bülow","birth_year":"1830","death_year":"1894","href":"https://de.wikipedia.org/wiki/Hans_von_B%C3%BClow","birth_place":"Dresden","death_place":"Kairo","birth_loc":{"lat":"51.0493286","lon":"13.7381437"},"death_loc":{"lat":"30.048819","lon":"31.243666"}},{"name":"August Bungert","birth_year":"1845","death_year":"1915","href":"https://de.wikipedia.org/wiki/August_Bungert","birth_place":"Mülheim an der Ruhr","death_place":"Leutesdorf","birth_loc":{"lat":"51.4272925","lon":"6.8829192"},"death_loc":{"lat":"50.4503845","lon":"7.3864788"}},{"name":"Gerard Bunk","birth_year":"1888","death_year":"1958","href":"https://de.wikipedia.org/wiki/Gerard_Bunk","birth_place":"Rotterdam","death_place":"Kamen","birth_loc":{"lat":"51.9228958","lon":"4.4631727"},"death_loc":{"lat":"51.5918019","lon":"7.6616804"}},{"name":"Friedrich Burgmüller","birth_year":"1806","death_year":"1874","href":"https://de.wikipedia.org/wiki/Friedrich_Burgm%C3%BCller","birth_place":"Regensburg","death_place":"Beaulieu bei Marolles-en-Hurepoix","birth_loc":{"lat":"49.0195333","lon":"12.0974869"}},{"name":"Norbert Burgmüller","birth_year":"1810","death_year":"1836","href":"https://de.wikipedia.org/wiki/Norbert_Burgm%C3%BCller","birth_place":"Düsseldorf","death_place":"Aachen","birth_loc":{"lat":"51.2254018","lon":"6.7763137"},"death_loc":{"lat":"50.776351","lon":"6.083862"}},{"name":"Adolf Busch","birth_year":"1891","death_year":"1952","href":"https://de.wikipedia.org/wiki/Adolf_Busch","birth_place":"Siegen","death_place":"Guilford","birth_loc":{"lat":"50.8749804","lon":"8.0227233"},"death_loc":{"lat":"36.0875688","lon":"-79.7888515"}},{"name":"Hans Bußmeyer","birth_year":"1853","death_year":"1930","href":"https://de.wikipedia.org/wiki/Hans_Bu%C3%9Fmeyer","birth_place":"Braunschweig","death_place":"Pöcking","birth_loc":{"lat":"52.2646577","lon":"10.5236066"},"death_loc":{"lat":"47.9667051","lon":"11.2999886"}},{"name":"Hugo Bußmeyer","birth_year":"1842","death_year":"1912","href":"https://de.wikipedia.org/wiki/Hugo_Bu%C3%9Fmeyer","birth_place":"Braunschweig","death_place":"Rio de Janeiro","birth_loc":{"lat":"52.2646577","lon":"10.5236066"},"death_loc":{"lat":"-22.9110137","lon":"-43.2093727"}},{"name":"Max Butting","birth_year":"1888","death_year":"1976","href":"https://de.wikipedia.org/wiki/Max_Butting","birth_place":"Berlin","death_place":"Berlin","birth_loc":{"lat":"52.5170365","lon":"13.3888599"},"death_loc":{"lat":"52.5170365","lon":"13.3888599"}},{"name":"Johann Heinrich Buttstedt","birth_year":"1666","death_year":"1727","href":"https://de.wikipedia.org/wiki/Johann_Heinrich_Buttstedt","birth_place":"Bindersleben bei Erfurt","death_place":"Erfurt","birth_loc":{"lat":"50.9743761","lon":"10.9496467"},"death_loc":{"lat":"50.9777974","lon":"11.0287364"}},{"name":"Dietrich Buxtehude","birth_year":"1637","death_year":"1707","href":"https://de.wikipedia.org/wiki/Dietrich_Buxtehude","birth_place":"Helsingborg","death_place":"Lübeck","birth_loc":{"lat":"56.0441984","lon":"12.7040684"},"death_loc":{"lat":"53.866444","lon":"10.684738"}},{"name":"Sethus Calvisius","birth_year":"1556","death_year":"1615","href":"https://de.wikipedia.org/wiki/Sethus_Calvisius","birth_place":"Gorsleben","death_place":"Leipzig","birth_loc":{"lat":"51.27549145","lon":"11.1912143311498"},"death_loc":{"lat":"51.3406321","lon":"12.3747329"}},{"name":"Placidus von Camerloher","birth_year":"1718","death_year":"1782","href":"https://de.wikipedia.org/wiki/Placidus_von_Camerloher","birth_place":"Murnau am Staffelsee","death_place":"Freising","birth_loc":{"lat":"47.6778816","lon":"11.2011903"},"death_loc":{"lat":"48.4008273","lon":"11.7439565"}},{"name":"Hans Chemin-Petit -Sohn-","birth_year":"1902","death_year":"1981","href":"https://de.wikipedia.org/wiki/Hans_Chemin-Petit","birth_place":"Potsdam","death_place":"Berlin","birth_loc":{"lat":"52.4009309","lon":"13.0591397"},"death_loc":{"lat":"52.5170365","lon":"13.3888599"}},{"name":"Hans Chemin-Petit","birth_year":"1864","death_year":"1917","href":"https://de.wikipedia.org/wiki/Hans_Chemin-Petit_d._%C3%84.","birth_place":"Rostock","death_place":"Potsdam","birth_loc":{"lat":"54.0924445","lon":"12.1286127"},"death_loc":{"lat":"52.4009309","lon":"13.0591397"}},{"name":"Antonio Cesti","birth_year":"1623","death_year":"1669","href":"https://de.wikipedia.org/wiki/Antonio_Cesti","birth_place":"Arezzo","death_place":"Florenz","birth_loc":{"lat":"43.51720195","lon":"11.7638791812531"},"death_loc":{"lat":"43.7698712","lon":"11.2555757"}},{"name":"Johann Heinrich Clasing","birth_year":"1779","death_year":"1829","href":"https://de.wikipedia.org/wiki/Johann_Heinrich_Clasing","birth_place":"Hamburg","death_place":"Hamburg","birth_loc":{"lat":"53.550341","lon":"10.000654"},"death_loc":{"lat":"53.550341","lon":"10.000654"}},{"name":"August Conradi","birth_year":"1821","death_year":"1873","href":"https://de.wikipedia.org/wiki/August_Conradi","birth_place":"Berlin","death_place":"Berlin","birth_loc":{"lat":"52.5170365","lon":"13.3888599"},"death_loc":{"lat":"52.5170365","lon":"13.3888599"}},{"name":"Johann Georg Conradi","birth_year":"1645","death_year":"1699","href":"https://de.wikipedia.org/wiki/Johann_Georg_Conradi","birth_place":"Oettingen","death_place":"Oettingen","birth_loc":{"lat":"49.4425009","lon":"6.0182549"},"death_loc":{"lat":"49.4425009","lon":"6.0182549"}},{"name":"Peter Cornelius","birth_year":"1824","death_year":"1874","href":"https://de.wikipedia.org/wiki/Peter_Cornelius_(Komponist)","birth_place":"Mainz","death_place":"Mainz","birth_loc":{"lat":"50.0012314","lon":"8.2762513"},"death_loc":{"lat":"50.0012314","lon":"8.2762513"}},{"name":"Carl Czerny","birth_year":"1791","death_year":"1857","href":"https://de.wikipedia.org/wiki/Carl_Czerny","birth_place":"Wien","death_place":"Wien","birth_loc":{"lat":"48.2083537","lon":"16.3725042"},"death_loc":{"lat":"48.2083537","lon":"16.3725042"}},{"name":"Ferdinand David","birth_year":"1810","death_year":"1873","href":"https://de.wikipedia.org/wiki/Ferdinand_David","birth_place":"Hamburg","death_place":"","birth_loc":{"lat":"53.550341","lon":"10.000654"}},{"name":"Johann Nepomuk David","birth_year":"1895","death_year":"1977","href":"https://de.wikipedia.org/wiki/Johann_Nepomuk_David","birth_place":"Eferding","death_place":"Stuttgart","birth_loc":{"lat":"48.34453785","lon":"13.9644257970315"},"death_loc":{"lat":"48.7784485","lon":"9.1800132"}},{"name":"Constantin Christian Dedekind","birth_year":"1628","death_year":"1715","href":"https://de.wikipedia.org/wiki/Constantin_Christian_Dedekind","birth_place":"Reinsdorf","death_place":"Dresden","birth_loc":{"lat":"50.6994521","lon":"12.5587255"},"death_loc":{"lat":"51.0493286","lon":"13.7381437"}},{"name":"Christoph Demantius","birth_year":"1567","death_year":"1643","href":"https://de.wikipedia.org/wiki/Christoph_Demantius","birth_place":"Reichenberg","death_place":"Freiberg/ Sachsen","birth_loc":{"lat":"50.7702648","lon":"15.0583947"},"death_loc":{"lat":"50.9086704","lon":"13.3445784"}},{"name":"Paul Dessau","birth_year":"1894","death_year":"1979","href":"https://de.wikipedia.org/wiki/Paul_Dessau","birth_place":"Hamburg","death_place":"Königs Wusterhausen bei Berlin","birth_loc":{"lat":"53.550341","lon":"10.000654"},"death_loc":{"lat":"52.2994511","lon":"13.6244389"}},{"name":"Felix Otto Dessoff","birth_year":"1835","death_year":"1892","href":"https://de.wikipedia.org/wiki/Felix_Otto_Dessoff","birth_place":"Leipzig","death_place":"Frankfurt am Main","birth_loc":{"lat":"51.3406321","lon":"12.3747329"},"death_loc":{"lat":"50.1106444","lon":"8.6820917"}},{"name":"Anton Diabelli","birth_year":"1781","death_year":"1858","href":"https://de.wikipedia.org/wiki/Anton_Diabelli","birth_place":"Mattsee[1]","death_place":"Wien[2]","birth_loc":{"lat":"47.986133","lon":"13.10893"},"death_loc":{"lat":"48.139698","lon":"16.313008"}},{"name":"Hugo Distler","birth_year":"1908","death_year":"1942","href":"https://de.wikipedia.org/wiki/Hugo_Distler","birth_place":"Nürnberg","death_place":"Berlin","birth_loc":{"lat":"49.453872","lon":"11.077298"},"death_loc":{"lat":"52.5170365","lon":"13.3888599"}},{"name":"Carl Ditters von Dittersdorf","birth_year":"1739","death_year":"1799","href":"https://de.wikipedia.org/wiki/Carl_Ditters_von_Dittersdorf","birth_place":"Wien","death_place":"Neuhof","birth_loc":{"lat":"48.2083537","lon":"16.3725042"},"death_loc":{"lat":"53.4590941","lon":"11.8325459"}},{"name":"Johann Friedrich Doles","birth_year":"1715","death_year":"1797","href":"https://de.wikipedia.org/wiki/Johann_Friedrich_Doles","birth_place":"Steinbach-Hallenberg","death_place":"Leipzig","birth_loc":{"lat":"50.69884575","lon":"10.5905560457457"},"death_loc":{"lat":"51.3406321","lon":"12.3747329"}},{"name":"Heinrich Dorn","birth_year":"1804","death_year":"1892","href":"https://de.wikipedia.org/wiki/Heinrich_Dorn_(Komponist)","birth_place":"Königsberg","death_place":"Berlin","birth_loc":{"lat":"54.710128","lon":"20.5105838"},"death_loc":{"lat":"52.5170365","lon":"13.3888599"}},{"name":"Justus Johann Friedrich Dotzauer","birth_year":"1783","death_year":"1860","href":"https://de.wikipedia.org/wiki/Friedrich_Dotzauer","birth_place":"Häselrieth bei Hildburghausen","death_place":"Dresden","birth_loc":{"lat":"50.4320722","lon":"10.707374"},"death_loc":{"lat":"51.0493286","lon":"13.7381437"}},{"name":"Felix Draeseke","birth_year":"1835","death_year":"1913","href":"https://de.wikipedia.org/wiki/Felix_Draeseke","birth_place":"Coburg","death_place":"Dresden","birth_loc":{"lat":"50.258112","lon":"10.964463"},"death_loc":{"lat":"51.0493286","lon":"13.7381437"}},{"name":"Maximilian-Friedrich von Droste zu Hülshoff","birth_year":"1764","death_year":"1840","href":"https://de.wikipedia.org/wiki/Maximilian-Friedrich_von_Droste_zu_H%C3%BClshoff","birth_place":"Burg Hülshoff","death_place":"Haus Alst bei Steinfurt","birth_loc":{"lat":"51.97139305","lon":"7.50325122177789"},"death_loc":{"lat":"52.0933196","lon":"7.33607591846016"}},{"name":"Jiří Družecký","birth_year":"1745","death_year":"1819","href":"https://de.wikipedia.org/wiki/Ji%C5%99%C3%AD_Dru%C5%BEeck%C3%BD","birth_place":"Družec bei Kladno","death_place":"Buda","birth_loc":{"lat":"50.1029559","lon":"14.0456678"},"death_loc":{"lat":"45.1009992","lon":"24.3034081191525"}},{"name":"Philipp Dulichius","birth_year":"1562","death_year":"1631","href":"https://de.wikipedia.org/wiki/Philipp_Dulichius","birth_place":"Chemnitz","death_place":"Stettin","birth_loc":{"lat":"50.8322608","lon":"12.9252977"},"death_loc":{"lat":"53.4301818","lon":"14.5509623"}},{"name":"Johann Georg Ebeling","birth_year":"1637","death_year":"1676","href":"https://de.wikipedia.org/wiki/Johann_Georg_Ebeling","birth_place":"Lüneburg","death_place":"Stettin","birth_loc":{"lat":"53.248706","lon":"10.407855"},"death_loc":{"lat":"53.4301818","lon":"14.5509623"}},{"name":"Johann Ernst Eberlin","birth_year":"1702","death_year":"1762","href":"https://de.wikipedia.org/wiki/Johann_Ernst_Eberlin","birth_place":"Jettingen","death_place":"","birth_loc":{"lat":"47.598553","lon":"7.3727619"}},{"name":"Traugott Maximilian Eberwein","birth_year":"1775","death_year":"1831","href":"https://de.wikipedia.org/wiki/Traugott_Maximilian_Eberwein","birth_place":"Weimar","death_place":"Rudolstadt","birth_loc":{"lat":"50.9802813","lon":"11.3290855"},"death_loc":{"lat":"50.7206063","lon":"11.3401985"}},{"name":"Johannes Eccard","birth_year":"1553","death_year":"1611","href":"https://de.wikipedia.org/wiki/Johannes_Eccard","birth_place":"Mühlhausen/Thüringen","death_place":"Berlin","birth_loc":{"lat":"51.2094255","lon":"10.4589044"},"death_loc":{"lat":"52.5170365","lon":"13.3888599"}},{"name":"Werner Egk","birth_year":"1901","death_year":"1983","href":"https://de.wikipedia.org/wiki/Werner_Egk","birth_place":"Auchsesheim bei Donauwörth","death_place":"Inning am Ammersee","birth_loc":{"lat":"48.6912951","lon":"10.7821058"},"death_loc":{"lat":"48.0774991","lon":"11.1526202"}},{"name":"Johann Samuel Endler","birth_year":"1694","death_year":"1762","href":"https://de.wikipedia.org/wiki/Johann_Samuel_Endler","birth_place":"Olbernhau","death_place":"Darmstadt","birth_loc":{"lat":"50.6564031","lon":"13.345242"},"death_loc":{"lat":"49.872775","lon":"8.651177"}},{"name":"Philipp Heinrich Erlebach","birth_year":"1657","death_year":"1714","href":"https://de.wikipedia.org/wiki/Philipp_Heinrich_Erlebach","birth_place":"Esens/Ostfriesland","death_place":"Rudolstadt ","birth_loc":{"lat":"53.6431501","lon":"7.6071531"},"death_loc":{"lat":"50.7206063","lon":"11.3401985"}},{"name":"Jean Paul Ertel","birth_year":"1865","death_year":"1933","href":"https://de.wikipedia.org/wiki/Jean_Paul_Ertel","birth_place":"Posen","death_place":"Berlin","birth_loc":{"lat":"52.4082663","lon":"16.9335199"},"death_loc":{"lat":"52.5170365","lon":"13.3888599"}},{"name":"Hans Adolph Friedrich von Eschstruth","birth_year":"1756","death_year":"1792","href":"https://de.wikipedia.org/wiki/Hans_Adolph_Friedrich_von_Eschstruth","birth_place":"Homberg ","death_place":"Kassel","birth_loc":{"lat":"50.6407001","lon":"8.1058112"},"death_loc":{"lat":"51.3154546","lon":"9.4924096"}},{"name":"Georg Espitalier","birth_year":"1926","death_year":"2010","href":"https://de.wikipedia.org/wiki/Georg_Espitalier","birth_place":"Bremen","death_place":"Bremen","birth_loc":{"lat":"53.0758196","lon":"8.8071646"},"death_loc":{"lat":"53.0758196","lon":"8.8071646"}},{"name":"Kaspar Ett","birth_year":"1788","death_year":"1847","href":"https://de.wikipedia.org/wiki/Kaspar_Ett","birth_place":"Eresing","death_place":"München","birth_loc":{"lat":"48.0863759","lon":"11.0240593"},"death_loc":{"lat":"48.1371079","lon":"11.5753822"}},{"name":"Clara Faisst","birth_year":"1872","death_year":"1948","href":"https://de.wikipedia.org/wiki/Clara_Faisst","birth_place":"Karlsruhe","death_place":"Karlsruhe","birth_loc":{"lat":"49.0068705","lon":"8.4034195"},"death_loc":{"lat":"49.0068705","lon":"8.4034195"}},{"name":"Immanuel Faißt","birth_year":"1823","death_year":"1894","href":"https://de.wikipedia.org/wiki/Immanuel_Fai%C3%9Ft","birth_place":"Esslingen am Neckar","death_place":"Stuttgart","birth_loc":{"lat":"48.7427584","lon":"9.3071685"},"death_loc":{"lat":"48.7784485","lon":"9.1800132"}},{"name":"Carl Friedrich Christian Fasch","birth_year":"1736","death_year":"1800","href":"https://de.wikipedia.org/wiki/Carl_Friedrich_Christian_Fasch","birth_place":"Zerbst","death_place":"Berlin","birth_loc":{"lat":"51.9640308","lon":"12.0857291"},"death_loc":{"lat":"52.5170365","lon":"13.3888599"}},{"name":"Johann Friedrich Fasch","birth_year":"1688","death_year":"1758","href":"https://de.wikipedia.org/wiki/Johann_Friedrich_Fasch","birth_place":"Buttelstedt","death_place":"Zerbst","birth_loc":{"lat":"51.07559445","lon":"11.351779379613"},"death_loc":{"lat":"51.9640308","lon":"12.0857291"}},{"name":"Peter Fassbänder","birth_year":"1869","death_year":"1920","href":"https://de.wikipedia.org/wiki/Peter_Fassb%C3%A4nder","birth_place":"Aachen","death_place":"Zürich","birth_loc":{"lat":"50.776351","lon":"6.083862"},"death_loc":{"lat":"47.3723941","lon":"8.5423328"}},{"name":"Georg Feldmayr","birth_year":"1756","death_year":"1834","href":"https://de.wikipedia.org/wiki/Georg_Feldmayr","birth_place":"Pfaffenhoffen","death_place":"Hamburg","birth_loc":{"lat":"48.84129975","lon":"7.60049258863281"},"death_loc":{"lat":"53.550341","lon":"10.000654"}},{"name":"Alexander von Fielitz","birth_year":"1860","death_year":"1930","href":"https://de.wikipedia.org/wiki/Alexander_von_Fielitz","birth_place":"Leipzig","death_place":"Bad Salzungen","birth_loc":{"lat":"51.3406321","lon":"12.3747329"},"death_loc":{"lat":"50.812318","lon":"10.2320784"}},{"name":"Friedrich Filitz","birth_year":"1804","death_year":"1876","href":"https://de.wikipedia.org/wiki/Friedrich_Filitz","birth_place":"Arnstadt","death_place":"Bonn","birth_loc":{"lat":"50.8349097","lon":"10.9461479"},"death_loc":{"lat":"50.735851","lon":"7.10066"}},{"name":"Gottfried Wilhelm Fink","birth_year":"1783","death_year":"1846","href":"https://de.wikipedia.org/wiki/Gottfried_Wilhelm_Fink","birth_place":"Sulza ","death_place":"Leipzig","birth_loc":{"lat":"50.867209","lon":"11.6189257"},"death_loc":{"lat":"51.3406321","lon":"12.3747329"}},{"name":"Siegfried Fink","birth_year":"1928","death_year":"2006","href":"https://de.wikipedia.org/wiki/Siegfried_Fink","birth_place":"Zerbst/Anhalt","death_place":"Würzburg","birth_loc":{"lat":"51.9640308","lon":"12.0857291"},"death_loc":{"lat":"49.79245","lon":"9.932966"}},{"name":"Johann Fischer","birth_year":"1646","death_year":"1716","href":"https://de.wikipedia.org/wiki/Johann_Fischer_(Komponist)","birth_place":"Augsburg","death_place":"Schwedt/Oder","birth_loc":{"lat":"48.3668041","lon":"10.8986971"},"death_loc":{"lat":"53.0586366","lon":"14.2840858"}},{"name":"Johann Christian Fischer","birth_year":"1733","death_year":"1800","href":"https://de.wikipedia.org/wiki/Johann_Christian_Fischer_(Komponist)","birth_place":"Freiburg im Breisgau","death_place":"London","birth_loc":{"lat":"47.9960901","lon":"7.8494005"},"death_loc":{"lat":"51.5073219","lon":"-0.1276474"}},{"name":"Michael Gotthard Fischer","birth_year":"1773","death_year":"1829","href":"https://de.wikipedia.org/wiki/Michael_Gotthard_Fischer","birth_place":"Alach","death_place":"Erfurt","birth_loc":{"lat":"50.9874419","lon":"10.9285512"},"death_loc":{"lat":"50.9777974","lon":"11.0287364"}},{"name":"Johann Friedrich Anton Fleischmann","birth_year":"1766","death_year":"1798","href":"https://de.wikipedia.org/wiki/Johann_Friedrich_Anton_Fleischmann","birth_place":"Marktheidenfeld","death_place":"Meiningen","birth_loc":{"lat":"49.8452797","lon":"9.6067197"},"death_loc":{"lat":"50.57342505","lon":"10.4283711376078"}},{"name":"Christian Flor","birth_year":"1626","death_year":"1697","href":"https://de.wikipedia.org/wiki/Christian_Flor_(Komponist)","birth_place":"Neukirchen ","death_place":"Neukirchen ","birth_loc":{"lat":"54.8687122","lon":"8.7339915"},"death_loc":{"lat":"54.8687122","lon":"8.7339915"}},{"name":"Friedrich von Flotow","birth_year":"1812","death_year":"1883","href":"https://de.wikipedia.org/wiki/Friedrich_von_Flotow","birth_place":"Teutendorf","death_place":"Darmstadt","birth_loc":{"lat":"53.9644774","lon":"10.8385199"},"death_loc":{"lat":"49.872775","lon":"8.651177"}},{"name":"Johann Nikolaus Forkel","birth_year":"1749","death_year":"1818","href":"https://de.wikipedia.org/wiki/Johann_Nikolaus_Forkel","birth_place":"Meeder bei Coburg","death_place":"Göttingen","birth_loc":{"lat":"50.321338","lon":"10.907094"},"death_loc":{"lat":"51.5328328","lon":"9.9351811"}},{"name":"Christoph Förster","birth_year":"1693","death_year":"1745","href":"https://de.wikipedia.org/wiki/Christoph_F%C3%B6rster_(Komponist)","birth_place":"Bibra","death_place":"Rudolstadt","birth_loc":{"lat":"50.8035969","lon":"11.5463293"},"death_loc":{"lat":"50.7206063","lon":"11.3401985"}},{"name":"Wolfgang Fortner","birth_year":"1907","death_year":"1987","href":"https://de.wikipedia.org/wiki/Wolfgang_Fortner","birth_place":"Leipzig","death_place":"Heidelberg","birth_loc":{"lat":"51.3406321","lon":"12.3747329"},"death_loc":{"lat":"49.4093582","lon":"8.694724"}},{"name":"Eduard Franck","birth_year":"1817","death_year":"1893","href":"https://de.wikipedia.org/wiki/Eduard_Franck","birth_place":"Breslau","death_place":"Berlin","birth_loc":{"lat":"51.1089776","lon":"17.0326689"},"death_loc":{"lat":"52.5170365","lon":"13.3888599"}},{"name":"Melchior Franck","birth_year":"1580","death_year":"1639","href":"https://de.wikipedia.org/wiki/Melchior_Franck","birth_place":"Zittau","death_place":"Coburg","birth_loc":{"lat":"50.8959142","lon":"14.8064417"},"death_loc":{"lat":"50.258112","lon":"10.964463"}},{"name":"Richard Franck","birth_year":"1858","death_year":"1938","href":"https://de.wikipedia.org/wiki/Richard_Franck","birth_place":"Köln","death_place":"Heidelberg","birth_loc":{"lat":"50.938361","lon":"6.959974"},"death_loc":{"lat":"49.4093582","lon":"8.694724"}},{"name":"Clemens von Franckenstein","birth_year":"1875","death_year":"1942","href":"https://de.wikipedia.org/wiki/Clemens_von_Franckenstein","birth_place":"Wiesentheid","death_place":"Hechendorf","birth_loc":{"lat":"49.7955367","lon":"10.3435799"},"death_loc":{"lat":"47.6620142","lon":"11.2090077"}},{"name":"Robert Franz","birth_year":"1815","death_year":"1892","href":"https://de.wikipedia.org/wiki/Robert_Franz","birth_place":"Halle ","death_place":"Halle ","birth_loc":{"lat":"51.4825041","lon":"11.9705452"},"death_loc":{"lat":"51.4825041","lon":"11.9705452"}},{"name":"Henning Frederichs","birth_year":"1936","death_year":"2003","href":"https://de.wikipedia.org/wiki/Henning_Frederichs","birth_place":"Königsberg","death_place":"Wuppertal","birth_loc":{"lat":"54.710128","lon":"20.5105838"},"death_loc":{"lat":"51.264018","lon":"7.1780374"}},{"name":"Carl Friedemann","birth_year":"1862","death_year":"1952","href":"https://de.wikipedia.org/wiki/Carl_Friedemann","birth_place":"Mücheln bei Merseburg","death_place":"Bern","birth_loc":{"lat":"51.356546","lon":"12.071834"},"death_loc":{"lat":"46.9482713","lon":"7.4514512"}},{"name":"Friedrich II., König von Preußen","birth_year":"1712","death_year":"1786","href":"https://de.wikipedia.org/wiki/Friedrich_II._(Preu%C3%9Fen)","birth_place":"Berlin","death_place":"Potsdam","birth_loc":{"lat":"52.5170365","lon":"13.3888599"},"death_loc":{"lat":"52.4009309","lon":"13.0591397"}},{"name":"Johannes Fritsch","birth_year":"1941","death_year":"2010","href":"https://de.wikipedia.org/wiki/Johannes_Fritsch","birth_place":"Auerbach ","death_place":"Bonn","birth_loc":{"lat":"50.5087816","lon":"12.400153"},"death_loc":{"lat":"50.735851","lon":"7.10066"}},{"name":"Johann Jakob Froberger","birth_year":"1616","death_year":"1667","href":"https://de.wikipedia.org/wiki/Johann_Jakob_Froberger","birth_place":"Stuttgart","death_place":"","birth_loc":{"lat":"48.7784485","lon":"9.1800132"}},{"name":"Ilse Fromm-Michaels","birth_year":"1888","death_year":"1986","href":"https://de.wikipedia.org/wiki/Ilse_Fromm-Michaels","birth_place":"Hamburg","death_place":"Detmold","birth_loc":{"lat":"53.550341","lon":"10.000654"},"death_loc":{"lat":"51.936284","lon":"8.8791526"}},{"name":"Gerhard Frommel","birth_year":"1906","death_year":"1984","href":"https://de.wikipedia.org/wiki/Gerhard_Frommel","birth_place":"Karlsruhe","death_place":"Filderstadt","birth_loc":{"lat":"49.0068705","lon":"8.4034195"},"death_loc":{"lat":"48.6616311","lon":"9.2236805"}},{"name":"Albert Fuchs","birth_year":"1858","death_year":"1910","href":"https://de.wikipedia.org/wiki/Albert_Fuchs_(Komponist)","birth_place":"Basel","death_place":"Dresden","birth_loc":{"lat":"47.5581077","lon":"7.5878261"},"death_loc":{"lat":"51.0493286","lon":"13.7381437"}},{"name":"Adam von Fulda","birth_year":"1445","death_year":"1505","href":"https://de.wikipedia.org/wiki/Adam_von_Fulda","birth_place":"Fulda","death_place":"Wittenberg","birth_loc":{"lat":"50.5521486","lon":"9.676511"},"death_loc":{"lat":"51.9161437","lon":"12.6467672035698"}},{"name":"Wilhelm Furtwängler","birth_year":"1886","death_year":"1954","href":"https://de.wikipedia.org/wiki/Wilhelm_Furtw%C3%A4ngler","birth_place":"Schöneberg","death_place":"Ebersteinburg bei Baden-Baden","birth_loc":{"lat":"52.482157","lon":"13.3551901"},"death_loc":{"lat":"48.7819482","lon":"8.2696757"}},{"name":"Gustav Geierhaas","birth_year":"1888","death_year":"1976","href":"https://de.wikipedia.org/wiki/Gustav_Geierhaas","birth_place":"Neckarhausen","death_place":"München","birth_loc":{"lat":"48.3978382","lon":"8.6468916"},"death_loc":{"lat":"48.1371079","lon":"11.5753822"}},{"name":"Fritz Geißler","birth_year":"1921","death_year":"1984","href":"https://de.wikipedia.org/wiki/Fritz_Gei%C3%9Fler_(Komponist)","birth_place":"Wurzen","death_place":"Bad Saarow","birth_loc":{"lat":"51.3709574","lon":"12.7410574"},"death_loc":{"lat":"52.2922975","lon":"14.0552305"}},{"name":"Johannes Gelbke","birth_year":"1846","death_year":"1903","href":"https://de.wikipedia.org/wiki/Johannes_Gelbke","birth_place":"Radeberg","death_place":"Buffalo","birth_loc":{"lat":"51.1151413","lon":"13.9175257"},"death_loc":{"lat":"42.8867166","lon":"-78.8783922"}},{"name":" Ernst von Gemmingen-Hornberg","birth_year":"1759","death_year":"1813","href":"https://de.wikipedia.org/wiki/Ernst_von_Gemmingen-Hornberg_(Komponist)","birth_place":"Celle","death_place":"Mannheim","birth_loc":{"lat":"52.624056","lon":"10.081052"},"death_loc":{"lat":"49.489591","lon":"8.467236"}},{"name":"Harald Genzmer","birth_year":"1909","death_year":"2007","href":"https://de.wikipedia.org/wiki/Harald_Genzmer","birth_place":"Blumenthal","death_place":"München","birth_loc":{"lat":"54.2263979","lon":"10.0019426"},"death_loc":{"lat":"48.1371079","lon":"11.5753822"}},{"name":"Günter Gerlach","birth_year":"1928","death_year":"2003","href":"https://de.wikipedia.org/wiki/G%C3%BCnter_Gerlach_(Musiker)","birth_place":"Berlin-Lankwitz","death_place":"Berlin","birth_loc":{"lat":"52.4387852","lon":"13.3420633"},"death_loc":{"lat":"52.5170365","lon":"13.3888599"}},{"name":"Heinrich Germer","birth_year":"1837","death_year":"1913","href":"https://de.wikipedia.org/wiki/Heinrich_Germer_(Komponist)","birth_place":"Sommersdorf","death_place":"Niederlößnitz","birth_loc":{"lat":"53.7931529","lon":"12.8917322"},"death_loc":{"lat":"51.1099414","lon":"13.6445847"}},{"name":"Friedrich Gernsheim","birth_year":"1839","death_year":"1916","href":"https://de.wikipedia.org/wiki/Friedrich_Gernsheim","birth_place":"Worms","death_place":"Berlin","birth_loc":{"lat":"49.6302618","lon":"8.3620898"},"death_loc":{"lat":"52.5170365","lon":"13.3888599"}},{"name":"Ottmar Gerster","birth_year":"1897","death_year":"1969","href":"https://de.wikipedia.org/wiki/Ottmar_Gerster","birth_place":"Braunfels","death_place":"Borsdorf bei Leipzig","birth_loc":{"lat":"50.5171963","lon":"8.3957968"},"death_loc":{"lat":"51.3472715","lon":"12.540308"}},{"name":"Michael Gielen","birth_year":"1927","death_year":"2019","href":"https://de.wikipedia.org/wiki/Michael_Gielen","birth_place":"Dresden","death_place":"Mondsee","birth_loc":{"lat":"51.0493286","lon":"13.7381437"},"death_loc":{"lat":"47.8560014","lon":"13.3500658"}},{"name":"Christoph Willibald Gluck","birth_year":"1714","death_year":"1787","href":"https://de.wikipedia.org/wiki/Christoph_Willibald_Gluck","birth_place":"Erasbach[1] bei Berching","death_place":"Wien"},{"name":"Werner Gneist","birth_year":"1898","death_year":"1980","href":"https://de.wikipedia.org/wiki/Werner_Gneist","birth_place":"Ulm","death_place":"Kirchheim unter Teck","birth_loc":{"lat":"48.3974003","lon":"9.9934336"},"death_loc":{"lat":"48.6480545","lon":"9.4510227"}},{"name":"Hermann Goetz","birth_year":"1840","death_year":"1876","href":"https://de.wikipedia.org/wiki/Hermann_Goetz","birth_place":"Königsberg","death_place":"Hottingen bei Zürich","birth_loc":{"lat":"54.710128","lon":"20.5105838"},"death_loc":{"lat":"47.3696799","lon":"8.5550821"}},{"name":"Walter Wilhelm Goetze","birth_year":"1883","death_year":"1961","href":"https://de.wikipedia.org/wiki/Walter_Wilhelm_Goetze","birth_place":"Berlin","death_place":"Berlin","birth_loc":{"lat":"52.5170365","lon":"13.3888599"},"death_loc":{"lat":"52.5170365","lon":"13.3888599"}},{"name":"Friedrich Goldmann","birth_year":"1941","death_year":"2009","href":"https://de.wikipedia.org/wiki/Friedrich_Goldmann","birth_place":"Siegmar-Schönau ","death_place":"Berlin","birth_loc":{"lat":"50.8191187","lon":"12.8629396"},"death_loc":{"lat":"52.5170365","lon":"13.3888599"}},{"name":"Berthold Goldschmidt","birth_year":"1903","death_year":"1996","href":"https://de.wikipedia.org/wiki/Berthold_Goldschmidt","birth_place":"Hamburg","death_place":"London","birth_loc":{"lat":"53.550341","lon":"10.000654"},"death_loc":{"lat":"51.5073219","lon":"-0.1276474"}},{"name":"Paul Graener","birth_year":"1872","death_year":"1944","href":"https://de.wikipedia.org/wiki/Paul_Graener","birth_place":"Berlin","death_place":"Salzburg","birth_loc":{"lat":"52.5170365","lon":"13.3888599"},"death_loc":{"lat":"47.7981346","lon":"13.0464806"}},{"name":"Christian Ernst Graf","birth_year":"1723","death_year":"1804","href":"https://de.wikipedia.org/wiki/Christian_Ernst_Graf","birth_place":"Rudolstadt","death_place":"Den Haag","birth_loc":{"lat":"50.7206063","lon":"11.3401985"},"death_loc":{"lat":"52.07494555","lon":"4.26968022053645"}},{"name":"Friedrich Hartmann Graf","birth_year":"1727","death_year":"1795","href":"https://de.wikipedia.org/wiki/Friedrich_Hartmann_Graf","birth_place":"Rudolstadt","death_place":"Augsburg","birth_loc":{"lat":"50.7206063","lon":"11.3401985"},"death_loc":{"lat":"48.3668041","lon":"10.8986971"}},{"name":"Johann Graf","birth_year":"1684","death_year":"1750","href":"https://de.wikipedia.org/wiki/Johann_Graf_(Komponist)","birth_place":"Nürnberg","death_place":"Rudolstadt","birth_loc":{"lat":"49.453872","lon":"11.077298"},"death_loc":{"lat":"50.7206063","lon":"11.3401985"}},{"name":"Carl Heinrich Graun","birth_year":"1704","death_year":"1759","href":"https://de.wikipedia.org/wiki/Carl_Heinrich_Graun","birth_place":"Wahrenbrück[1]","death_place":"Berlin"},{"name":"Johann Gottlieb Graun","birth_year":"1703","death_year":"1771","href":"https://de.wikipedia.org/wiki/Johann_Gottlieb_Graun","birth_place":"Wahrenbrück[1]","death_place":"Berlin"},{"name":"Christoph Graupner","birth_year":"1683","death_year":"1760","href":"https://de.wikipedia.org/wiki/Christoph_Graupner","birth_place":"Kirchberg","death_place":"Darmstadt","birth_loc":{"lat":"47.7979814","lon":"6.9537288"},"death_loc":{"lat":"49.872775","lon":"8.651177"}},{"name":"Luise Greger","birth_year":"1862","death_year":"1944","href":"https://de.wikipedia.org/wiki/Luise_Greger","birth_place":"Greifswald","death_place":"Kloster Merxhausen","birth_loc":{"lat":"54.095791","lon":"13.3815238"},"death_loc":{"lat":"51.22952","lon":"9.25675"}},{"name":"Eduard Grell","birth_year":"1800","death_year":"1886","href":"https://de.wikipedia.org/wiki/Eduard_Grell","birth_place":"Berlin","death_place":"Steglitz","birth_loc":{"lat":"52.5170365","lon":"13.3888599"},"death_loc":{"lat":"52.4572569","lon":"13.3222865"}},{"name":"Franz Grothe","birth_year":"1908","death_year":"1982","href":"https://de.wikipedia.org/wiki/Franz_Grothe_(Komponist)","birth_place":"Berlin","death_place":"Köln","birth_loc":{"lat":"52.5170365","lon":"13.3888599"},"death_loc":{"lat":"50.938361","lon":"6.959974"}},{"name":"Max Gulbins","birth_year":"1862","death_year":"1932","href":"https://de.wikipedia.org/wiki/Max_Gulbins","birth_place":"Kummetschen","death_place":"Breslau","birth_loc":{"lat":"54.8609614","lon":"22.840444"},"death_loc":{"lat":"51.1089776","lon":"17.0326689"}},{"name":"Manfred Gurlitt","birth_year":"1890","death_year":"1972","href":"https://de.wikipedia.org/wiki/Manfred_Gurlitt","birth_place":"Berlin","death_place":"Tokio","birth_loc":{"lat":"52.5170365","lon":"13.3888599"},"death_loc":{"lat":"35.6828387","lon":"139.7594549"}},{"name":"Volker Gwinner","birth_year":"1912","death_year":"2004","href":"https://de.wikipedia.org/wiki/Volker_Gwinner","birth_place":"Bremen","death_place":"Bremen","birth_loc":{"lat":"53.0758196","lon":"8.8071646"},"death_loc":{"lat":"53.0758196","lon":"8.8071646"}},{"name":"Joseph Haas","birth_year":"1879","death_year":"1960","href":"https://de.wikipedia.org/wiki/Joseph_Haas","birth_place":"Maihingen bei Nördlingen","death_place":"München","birth_loc":{"lat":"48.80445","lon":"10.494735"},"death_loc":{"lat":"48.1371079","lon":"11.5753822"}},{"name":"Hellmut Haase-Altendorf","birth_year":"1912","death_year":"1990","href":"https://de.wikipedia.org/wiki/Hellmut_Haase-Altendorf","birth_place":"Chemnitz","death_place":"Burladingen","birth_loc":{"lat":"50.8322608","lon":"12.9252977"},"death_loc":{"lat":"48.2892852","lon":"9.1134689"}},{"name":"Bernhard Hamann","birth_year":"1909","death_year":"1968","href":"https://de.wikipedia.org/wiki/Bernhard_Hamann","birth_place":"Hamburg","death_place":"Hamburg","birth_loc":{"lat":"53.550341","lon":"10.000654"},"death_loc":{"lat":"53.550341","lon":"10.000654"}},{"name":"Georg Friedrich Händel","birth_year":"1685","death_year":"1759","href":"https://de.wikipedia.org/wiki/Georg_Friedrich_H%C3%A4ndel","birth_place":"Halle ","death_place":"London","birth_loc":{"lat":"51.4825041","lon":"11.9705452"},"death_loc":{"lat":"51.5073219","lon":"-0.1276474"}},{"name":"Johann Wilhelm Häßler","birth_year":"1747","death_year":"1822","href":"https://de.wikipedia.org/wiki/Johann_Wilhelm_H%C3%A4%C3%9Fler","birth_place":"Erfurt","death_place":"Moskau","birth_loc":{"lat":"50.9777974","lon":"11.0287364"},"death_loc":{"lat":"55.7504461","lon":"37.6174943"}},{"name":"Rudolf Halaczinsky","birth_year":"1920","death_year":"1999","href":"https://de.wikipedia.org/wiki/Rudolf_Halaczinsky","birth_place":"Emmagrube","death_place":"Bensberg"},{"name":"August Halm","birth_year":"1869","death_year":"1929","href":"https://de.wikipedia.org/wiki/August_Halm","birth_place":"Großaltdorf in Württemberg","death_place":"Saalfeld/Saale in Thüringen","birth_loc":{"lat":"49.371358","lon":"8.694471"},"death_loc":{"lat":"50.6323357","lon":"11.37841425"}},{"name":"Heinz Friedrich Hartig","birth_year":"1907","death_year":"1969","href":"https://de.wikipedia.org/wiki/Heinz_Friedrich_Hartig","birth_place":"Kassel","death_place":"Berlin","birth_loc":{"lat":"51.3154546","lon":"9.4924096"},"death_loc":{"lat":"52.5170365","lon":"13.3888599"}},{"name":"Karl Amadeus Hartmann","birth_year":"1905","death_year":"1963","href":"https://de.wikipedia.org/wiki/Karl_Amadeus_Hartmann","birth_place":"München","death_place":"München","birth_loc":{"lat":"48.1371079","lon":"11.5753822"},"death_loc":{"lat":"48.1371079","lon":"11.5753822"}},{"name":"Ludwig Hartmann","birth_year":"1836","death_year":"1910","href":"https://de.wikipedia.org/wiki/Ludwig_Hartmann_(Komponist)","birth_place":"Neuss","death_place":"Dresden","birth_loc":{"lat":"51.1981778","lon":"6.6916476"},"death_loc":{"lat":"51.0493286","lon":"13.7381437"}},{"name":"Klaus Hashagen","birth_year":"1924","death_year":"1998","href":"https://de.wikipedia.org/wiki/Klaus_Hashagen","birth_place":"Semarang auf Java","death_place":"Nürnberg"},{"name":"Carl August Haupt","birth_year":"1810","death_year":"1891","href":"https://de.wikipedia.org/wiki/Carl_August_Haupt","birth_place":"Kuhnau/Schlesien","death_place":"Berlin","birth_loc":{"lat":"52.510706","lon":"13.618108"},"death_loc":{"lat":"52.5170365","lon":"13.3888599"}},{"name":"Moritz Hauptmann","birth_year":"1792","death_year":"1868","href":"https://de.wikipedia.org/wiki/Moritz_Hauptmann","birth_place":"Dresden","death_place":"Leipzig","birth_loc":{"lat":"51.0493286","lon":"13.7381437"},"death_loc":{"lat":"51.3406321","lon":"12.3747329"}},{"name":"Franz Joseph Haydn","birth_year":"1732","death_year":"1809","href":"https://de.wikipedia.org/wiki/Franz_Joseph_Haydn","birth_place":"Rohrau","death_place":"Wien","birth_loc":{"lat":"48.0661341","lon":"16.8594353"},"death_loc":{"lat":"48.2083537","lon":"16.3725042"}},{"name":"Pantaleon Hebenstreit","birth_year":"1668","death_year":"1750","href":"https://de.wikipedia.org/wiki/Pantaleon_Hebenstreit","birth_place":"Kleinheringen","death_place":"Dresden","birth_loc":{"lat":"51.1051355","lon":"11.6729337"},"death_loc":{"lat":"51.0493286","lon":"13.7381437"}},{"name":"Herbert Hechtel","birth_year":"1937","death_year":"2014","href":"https://de.wikipedia.org/wiki/Herbert_Hechtel","birth_place":"Ansbach","death_place":"","birth_loc":{"lat":"49.3028611","lon":"10.5722288"}},{"name":"Peter Heilbut","birth_year":"1920","death_year":"2005","href":"https://de.wikipedia.org/wiki/Peter_Heilbut","birth_place":"Sonneberg","death_place":"Hamburg","birth_loc":{"lat":"50.3575412","lon":"11.1691714"},"death_loc":{"lat":"53.550341","lon":"10.000654"}},{"name":"Harald Heilmann","birth_year":"1924","death_year":"2018","href":"https://de.wikipedia.org/wiki/Harald_Heilmann","birth_place":"Aue ","death_place":"","birth_loc":{"lat":"-24.7761086","lon":"134.755"}},{"name":"Johann David Heinichen","birth_year":"1683","death_year":"1729","href":"https://de.wikipedia.org/wiki/Johann_David_Heinichen","birth_place":"Krössuln","death_place":"Dresden","birth_loc":{"lat":"51.1230397","lon":"11.9917865"},"death_loc":{"lat":"51.0493286","lon":"13.7381437"}},{"name":"Hans Helfritz","birth_year":"1902","death_year":"1995","href":"https://de.wikipedia.org/wiki/Hans_Helfritz_(Komponist)","birth_place":"Hilbersdorf bei Chemnitz","death_place":"Duisburg","birth_loc":{"lat":"50.8526081","lon":"12.9504836"},"death_loc":{"lat":"51.434999","lon":"6.759562"}},{"name":"Fanny Hensel","birth_year":"1805","death_year":"1847","href":"https://de.wikipedia.org/wiki/Fanny_Hensel","birth_place":"Hamburg","death_place":"Berlin","birth_loc":{"lat":"53.550341","lon":"10.000654"},"death_loc":{"lat":"52.5170365","lon":"13.3888599"}},{"name":"Adolph von Henselt","birth_year":"1814","death_year":"1889","href":"https://de.wikipedia.org/wiki/Adolph_von_Henselt","birth_place":"Schwabach","death_place":"Bad Warmbrunn","birth_loc":{"lat":"49.3346915","lon":"11.0294139178305"},"death_loc":{"lat":"50.8652778","lon":"15.6775"}},{"name":"Bruno Henze","birth_year":"1900","death_year":"1978","href":"https://de.wikipedia.org/wiki/Bruno_Henze","birth_place":"Berlin","death_place":"Berlin","birth_loc":{"lat":"52.5170365","lon":"13.3888599"},"death_loc":{"lat":"52.5170365","lon":"13.3888599"}},{"name":"Carl Henze","birth_year":"1872","death_year":"1946","href":"https://de.wikipedia.org/wiki/Carl_Henze","birth_place":"Berlin","death_place":"Potsdam[1]","birth_loc":{"lat":"52.5170365","lon":"13.3888599"},"death_loc":{"lat":"-33.859793","lon":"18.549141"}},{"name":"Hans Werner Henze","birth_year":"1926","death_year":"2012","href":"https://de.wikipedia.org/wiki/Hans_Werner_Henze","birth_place":"Gütersloh","death_place":"Dresden","birth_loc":{"lat":"51.9063997","lon":"8.3782078"},"death_loc":{"lat":"51.0493286","lon":"13.7381437"}},{"name":"Heinrich Freiherr von Herzogenberg","birth_year":"1843","death_year":"1900","href":"https://de.wikipedia.org/wiki/Heinrich_Freiherr_von_Herzogenberg","birth_place":"Graz","death_place":"Wiesbaden","birth_loc":{"lat":"47.0708678","lon":"15.4382786"},"death_loc":{"lat":"50.0820384","lon":"8.2416556"}},{"name":"Kurt Hessenberg","birth_year":"1908","death_year":"1994","href":"https://de.wikipedia.org/wiki/Kurt_Hessenberg","birth_place":"Frankfurt am Main","death_place":"Frankfurt am Main","birth_loc":{"lat":"50.1106444","lon":"8.6820917"},"death_loc":{"lat":"50.1106444","lon":"8.6820917"}},{"name":"Bruno Heydrich","birth_year":"1865","death_year":"1938","href":"https://de.wikipedia.org/wiki/Bruno_Heydrich","birth_place":"Leuben","death_place":"Halle ","birth_loc":{"lat":"51.1621957","lon":"13.2952562"},"death_loc":{"lat":"51.4825041","lon":"11.9705452"}},{"name":"Manfred Heyl","birth_year":"1908","death_year":"2001","href":"https://de.wikipedia.org/wiki/Manfred_Heyl","birth_place":"Friedberg/Oberhessen","death_place":"Worms","birth_loc":{"lat":"50.3338494","lon":"8.75199712274982"},"death_loc":{"lat":"49.6302618","lon":"8.3620898"}},{"name":"Werner Richard Heymann","birth_year":"1896","death_year":"1961","href":"https://de.wikipedia.org/wiki/Werner_Richard_Heymann","birth_place":"Königsberg","death_place":"München","birth_loc":{"lat":"54.710128","lon":"20.5105838"},"death_loc":{"lat":"48.1371079","lon":"11.5753822"}},{"name":"Ernst Hildebrand","birth_year":"1918","death_year":"1986","href":"https://de.wikipedia.org/wiki/Ernst_Hildebrand_(Musiker)","birth_place":"Hagen","death_place":"Neusatz","birth_loc":{"lat":"51.3582945","lon":"7.473296"},"death_loc":{"lat":"45.2551338","lon":"19.8451756"}},{"name":"Ferdinand Hiller","birth_year":"1811","death_year":"1885","href":"https://de.wikipedia.org/wiki/Ferdinand_Hiller","birth_place":"Frankfurt am Main","death_place":"Köln","birth_loc":{"lat":"50.1106444","lon":"8.6820917"},"death_loc":{"lat":"50.938361","lon":"6.959974"}},{"name":"Friedrich Adam Hiller","birth_year":"1767","death_year":"1812","href":"https://de.wikipedia.org/wiki/Friedrich_Adam_Hiller","birth_place":"Leipzig","death_place":"Königsberg[1]","birth_loc":{"lat":"51.3406321","lon":"12.3747329"},"death_loc":{"lat":"48.466913","lon":"14.220007"}},{"name":"Johann Adam Hiller","birth_year":"1728","death_year":"1804","href":"https://de.wikipedia.org/wiki/Johann_Adam_Hiller","birth_place":"Wendisch Ossig","death_place":"Leipzig","birth_loc":{"lat":"51.0824061","lon":"14.9962741"},"death_loc":{"lat":"51.3406321","lon":"12.3747329"}},{"name":"Paul Hindemith","birth_year":"1895","death_year":"1963","href":"https://de.wikipedia.org/wiki/Paul_Hindemith","birth_place":"Hanau","death_place":"Frankfurt am Main","birth_loc":{"lat":"50.1335542","lon":"8.9168179"},"death_loc":{"lat":"50.1106444","lon":"8.6820917"}},{"name":"Rudolf Hindemith","birth_year":"1900","death_year":"1974","href":"https://de.wikipedia.org/wiki/Rudolf_Hindemith","birth_place":"Frankfurt am Main","death_place":"","birth_loc":{"lat":"50.1106444","lon":"8.6820917"}},{"name":"Karl Höller","birth_year":"1907","death_year":"1987","href":"https://de.wikipedia.org/wiki/Karl_H%C3%B6ller","birth_place":"Bamberg","death_place":"Hausham","birth_loc":{"lat":"49.8916044","lon":"10.8868478"},"death_loc":{"lat":"47.7507322","lon":"11.8394101"}},{"name":"Heinrich Hofmann","birth_year":"1842","death_year":"1902","href":"https://de.wikipedia.org/wiki/Heinrich_Hofmann_(Komponist)","birth_place":"Berlin","death_place":"Großtabarz","birth_loc":{"lat":"52.5170365","lon":"13.3888599"}},{"name":"E.T.A. Hoffmann","birth_year":"1776","death_year":"1822","href":"https://de.wikipedia.org/wiki/E.T.A._Hoffmann","birth_place":"Königsberg/Ostpreußen","death_place":"Berlin","birth_loc":{"lat":"52.430613","lon":"13.318789"},"death_loc":{"lat":"52.5170365","lon":"13.3888599"}},{"name":"Franz von Holstein","birth_year":"1826","death_year":"1878","href":"https://de.wikipedia.org/wiki/Franz_von_Holstein","birth_place":"Braunschweig","death_place":"Leipzig","birth_loc":{"lat":"52.2646577","lon":"10.5236066"},"death_loc":{"lat":"51.3406321","lon":"12.3747329"}},{"name":"Gottfried August Homilius","birth_year":"1714","death_year":"1785","href":"https://de.wikipedia.org/wiki/Gottfried_August_Homilius","birth_place":"Rosenthal","death_place":"Dresden","birth_loc":{"lat":"50.9768495","lon":"8.85291923385583"},"death_loc":{"lat":"51.0493286","lon":"13.7381437"}},{"name":"Géza Horváth","birth_year":"1868","death_year":"1925","href":"https://de.wikipedia.org/wiki/G%C3%A9za_Horv%C3%A1th","birth_place":"Komárom","death_place":"Wien","birth_loc":{"lat":"47.7417349","lon":"18.1218256"},"death_loc":{"lat":"48.2083537","lon":"16.3725042"}},{"name":"Wolfgang Hufschmidt","birth_year":"1934","death_year":"2018","href":"https://de.wikipedia.org/wiki/Wolfgang_Hufschmidt","birth_place":"Mülheim an der Ruhr","death_place":"Essen","birth_loc":{"lat":"51.4272925","lon":"6.8829192"},"death_loc":{"lat":"51.4582235","lon":"7.0158171"}},{"name":"Bertold Hummel","birth_year":"1925","death_year":"2002","href":"https://de.wikipedia.org/wiki/Bertold_Hummel","birth_place":"Hüfingen","death_place":"Würzburg","birth_loc":{"lat":"47.9269484","lon":"8.4892187"},"death_loc":{"lat":"49.79245","lon":"9.932966"}},{"name":"Engelbert Humperdinck","birth_year":"1854","death_year":"1921","href":"https://de.wikipedia.org/wiki/Engelbert_Humperdinck","birth_place":"Siegburg","death_place":"Neustrelitz","birth_loc":{"lat":"50.7928332","lon":"7.2070774"},"death_loc":{"lat":"53.3617163","lon":"13.0630004"}},{"name":"Hans Ulrich Humpert","birth_year":"1940","death_year":"2010","href":"https://de.wikipedia.org/wiki/Hans_Ulrich_Humpert","birth_place":"Paderborn","death_place":"Köln","birth_loc":{"lat":"51.71895955","lon":"8.76486977817756"},"death_loc":{"lat":"50.938361","lon":"6.959974"}},{"name":"Bernhard Hupfeld","birth_year":"1717","death_year":"1796","href":"https://de.wikipedia.org/wiki/Bernhard_Hupfeld","birth_place":"Kassel","death_place":"Marburg","birth_loc":{"lat":"51.3154546","lon":"9.4924096"},"death_loc":{"lat":"50.8117327","lon":"8.7757742"}},{"name":"Alfred Huth","birth_year":"1892","death_year":"1971","href":"https://de.wikipedia.org/wiki/Alfred_Huth_(Komponist)","birth_place":"Herborn","death_place":"Glückstadt","birth_loc":{"lat":"50.6831806","lon":"8.3031741"},"death_loc":{"lat":"53.7913149","lon":"9.4267978"}},{"name":"Wolfgang Jacobi","birth_year":"1894","death_year":"1972","href":"https://de.wikipedia.org/wiki/Wolfgang_Jacobi_(Komponist)","birth_place":"Bergen auf Rügen","death_place":"München","birth_loc":{"lat":"54.4172673","lon":"13.4305634"},"death_loc":{"lat":"48.1371079","lon":"11.5753822"}},{"name":"Salomon Jadassohn","birth_year":"1831","death_year":"1902","href":"https://de.wikipedia.org/wiki/Salomon_Jadassohn","birth_place":"Breslau","death_place":"Leipzig","birth_loc":{"lat":"51.1089776","lon":"17.0326689"},"death_loc":{"lat":"51.3406321","lon":"12.3747329"}},{"name":"Philipp Jarnach","birth_year":"1892","death_year":"1982","href":"https://de.wikipedia.org/wiki/Philipp_Jarnach","birth_place":"Noisy-le-Sec","death_place":"Börnsen","birth_loc":{"lat":"48.8897751","lon":"2.4516055"},"death_loc":{"lat":"53.4762007","lon":"10.2840403"}},{"name":"Michael Jary","birth_year":"1906","death_year":"1988","href":"https://de.wikipedia.org/wiki/Michael_Jary","birth_place":"Laurahütte bei Kattowitz","death_place":"München"},{"name":"Wolfgang Jehn","birth_year":"1937","death_year":"2017","href":"https://de.wikipedia.org/wiki/Wolfgang_Jehn","birth_place":"Wiesbaden","death_place":"Worpswede","birth_loc":{"lat":"50.0820384","lon":"8.2416556"},"death_loc":{"lat":"53.2230018","lon":"8.9283482"}},{"name":"Gustav Jenner","birth_year":"1865","death_year":"1920","href":"https://de.wikipedia.org/wiki/Gustav_Jenner","birth_place":"Keitum auf Sylt","death_place":"Marburg[1]","birth_loc":{"lat":"54.8929","lon":"8.3709"},"death_loc":{"lat":"51.813308","lon":"8.214677"}},{"name":"Adolf Jensen","birth_year":"1837","death_year":"1879","href":"https://de.wikipedia.org/wiki/Adolf_Jensen_(Komponist)","birth_place":"Königsberg","death_place":"Baden-Baden","birth_loc":{"lat":"54.710128","lon":"20.5105838"},"death_loc":{"lat":"48.7580777","lon":"8.2415239"}},{"name":"Erich Itor Kahn","birth_year":"1905","death_year":"1956","href":"https://de.wikipedia.org/wiki/Erich_Itor_Kahn","birth_place":"Rimbach im Odenwald","death_place":"New York","birth_loc":{"lat":"49.6238208","lon":"8.7601227"},"death_loc":{"lat":"40.7127281","lon":"-74.0060152"}},{"name":"Robert Kahn","birth_year":"1865","death_year":"1951","href":"https://de.wikipedia.org/wiki/Robert_Kahn_(Komponist)","birth_place":"Mannheim","death_place":"Biddenden","birth_loc":{"lat":"49.489591","lon":"8.467236"},"death_loc":{"lat":"51.115357","lon":"0.6428608"}},{"name":"Wilhelm Kaiser-Lindemann","birth_year":"1940","death_year":"2010","href":"https://de.wikipedia.org/wiki/Wilhelm_Kaiser-Lindemann","birth_place":"Viersen","death_place":"Preetz[1]","birth_loc":{"lat":"51.2562118","lon":"6.3905476"},"death_loc":{"lat":"54.356724","lon":"13.634178"}},{"name":"Heinrich Kaminski","birth_year":"1886","death_year":"1946","href":"https://de.wikipedia.org/wiki/Heinrich_Kaminski","birth_place":"Tiengen am Hochrhein","death_place":"Ried in Oberbayern","birth_loc":{"lat":"47.62494925","lon":"8.21419644139023"},"death_loc":{"lat":"47.95247815","lon":"12.1969868574387"}},{"name":"Sigfrid Karg-Elert","birth_year":"1877","death_year":"1933","href":"https://de.wikipedia.org/wiki/Sigfrid_Karg-Elert","birth_place":"Oberndorf am Neckar","death_place":"Leipzig","birth_loc":{"lat":"48.2908613","lon":"8.5711222"},"death_loc":{"lat":"51.3406321","lon":"12.3747329"}},{"name":"Georg Friedrich Kauffmann","birth_year":"1679","death_year":"1735","href":"https://de.wikipedia.org/wiki/Georg_Friedrich_Kauffmann","birth_place":"Ostramondra","death_place":"Merseburg","birth_loc":{"lat":"51.1998539","lon":"11.3286592"},"death_loc":{"lat":"51.3564413","lon":"11.996148"}},{"name":"Hans Joachim Kauffmann","birth_year":"1926","death_year":"2008","href":"https://de.wikipedia.org/wiki/Hans_Joachim_Kauffmann","birth_place":"Stuttgart","death_place":"Achim bei Bremen","birth_loc":{"lat":"48.7784485","lon":"9.1800132"},"death_loc":{"lat":"53.0357142","lon":"8.9621259"}},{"name":"Hugo Kaun","birth_year":"1863","death_year":"1932","href":"https://de.wikipedia.org/wiki/Hugo_Kaun","birth_place":"Berlin","death_place":"Berlin","birth_loc":{"lat":"52.5170365","lon":"13.3888599"},"death_loc":{"lat":"52.5170365","lon":"13.3888599"}},{"name":"Roland Kayn","birth_year":"1933","death_year":"2011","href":"https://de.wikipedia.org/wiki/Roland_Kayn","birth_place":"Reutlingen","death_place":"Nieuwe Pekela","birth_loc":{"lat":"48.4919508","lon":"9.2114144"},"death_loc":{"lat":"53.05578145","lon":"6.96063650346152"}},{"name":"Hans Kayser","birth_year":"1891","death_year":"1964","href":"https://de.wikipedia.org/wiki/Hans_Kayser","birth_place":"Buchau","death_place":"Bern","birth_loc":{"lat":"50.1504167","lon":"13.0454108"},"death_loc":{"lat":"46.9482713","lon":"7.4514512"}},{"name":"Wilhelm Keilmann","birth_year":"1908","death_year":"1989","href":"https://de.wikipedia.org/wiki/Wilhelm_Keilmann_(Komponist)","birth_place":"Würzburg","death_place":"Brixen","birth_loc":{"lat":"49.79245","lon":"9.932966"},"death_loc":{"lat":"46.7158647","lon":"11.6568621"}},{"name":"Max Keller","birth_year":"1770","death_year":"1855","href":"https://de.wikipedia.org/wiki/Max_Keller_(Komponist)","birth_place":"Trostberg","death_place":"Altötting","birth_loc":{"lat":"48.0279493","lon":"12.558228"},"death_loc":{"lat":"48.2268085","lon":"12.6757914"}},{"name":"Wilhelm Kempff","birth_year":"1895","death_year":"1991","href":"https://de.wikipedia.org/wiki/Wilhelm_Kempff","birth_place":"Jüterbog","death_place":"Positano","birth_loc":{"lat":"51.9916493","lon":"13.0801128"},"death_loc":{"lat":"40.6286581","lon":"14.4854955"}},{"name":"Johann Caspar von Kerll","birth_year":"1627","death_year":"1693","href":"https://de.wikipedia.org/wiki/Johann_Caspar_von_Kerll","birth_place":"Adorf","death_place":"München","birth_loc":{"lat":"50.3206834","lon":"12.2535919"},"death_loc":{"lat":"48.1371079","lon":"11.5753822"}},{"name":"Friedrich Kiel","birth_year":"1821","death_year":"1885","href":"https://de.wikipedia.org/wiki/Friedrich_Kiel","birth_place":"Puderbach","death_place":"Berlin","birth_loc":{"lat":"50.5994106","lon":"7.611867"},"death_loc":{"lat":"52.5170365","lon":"13.3888599"}},{"name":"Wilhelm Killmayer","birth_year":"1927","death_year":"2017","href":"https://de.wikipedia.org/wiki/Wilhelm_Killmayer","birth_place":"München","death_place":"Starnberg","birth_loc":{"lat":"48.1371079","lon":"11.5753822"},"death_loc":{"lat":"48.0001038","lon":"11.3508972"}},{"name":"Johanna Kinkel","birth_year":"1810","death_year":"1858","href":"https://de.wikipedia.org/wiki/Johanna_Kinkel","birth_place":"Bonn","death_place":"London","birth_loc":{"lat":"50.735851","lon":"7.10066"},"death_loc":{"lat":"51.5073219","lon":"-0.1276474"}},{"name":"Theodor Kirchner","birth_year":"1823","death_year":"1903","href":"https://de.wikipedia.org/wiki/Theodor_Kirchner","birth_place":"Neukirchen/Erzgeb.","death_place":"Hamburg","birth_loc":{"lat":"50.7795002","lon":"12.8669288"},"death_loc":{"lat":"53.550341","lon":"10.000654"}},{"name":"Volker David Kirchner","birth_year":"1942","death_year":"2020","href":"https://de.wikipedia.org/wiki/Volker_David_Kirchner","birth_place":"Mainz","death_place":"Wiesbaden[1]","birth_loc":{"lat":"50.0012314","lon":"8.2762513"},"death_loc":{"lat":"13.629781","lon":"-86.474735"}},{"name":"Johann Philipp Kirnberger","birth_year":"1721","death_year":"1783","href":"https://de.wikipedia.org/wiki/Johann_Philipp_Kirnberger","birth_place":"Saalfeld/Saale","death_place":"Berlin","birth_loc":{"lat":"50.6023255","lon":"11.3017187764534"},"death_loc":{"lat":"52.5170365","lon":"13.3888599"}},{"name":"Giselher Klebe","birth_year":"1925","death_year":"2009","href":"https://de.wikipedia.org/wiki/Giselher_Klebe","birth_place":"Mannheim","death_place":"Detmold","birth_loc":{"lat":"49.489591","lon":"8.467236"},"death_loc":{"lat":"51.936284","lon":"8.8791526"}},{"name":"Bernhard Klein","birth_year":"1793","death_year":"1832","href":"https://de.wikipedia.org/wiki/Bernhard_Klein","birth_place":"Köln","death_place":"Berlin","birth_loc":{"lat":"50.938361","lon":"6.959974"},"death_loc":{"lat":"52.5170365","lon":"13.3888599"}},{"name":"Richard Rudolf Klein","birth_year":"1921","death_year":"2011","href":"https://de.wikipedia.org/wiki/Richard_Rudolf_Klein","birth_place":"Nußdorf/Pfalz","death_place":"Glashütten ","birth_loc":{"lat":"49.22130425","lon":"8.11659135010104"},"death_loc":{"lat":"49.8896527","lon":"11.4491309"}},{"name":"Otto Klemperer","birth_year":"1885","death_year":"1973","href":"https://de.wikipedia.org/wiki/Otto_Klemperer","birth_place":"Breslau","death_place":"Zürich","birth_loc":{"lat":"51.1089776","lon":"17.0326689"},"death_loc":{"lat":"47.3723941","lon":"8.5423328"}},{"name":"Karl Klindworth","birth_year":"1830","death_year":"1916","href":"https://de.wikipedia.org/wiki/Karl_Klindworth","birth_place":"Hannover","death_place":"Stolpe","birth_loc":{"lat":"52.3744779","lon":"9.7385532"},"death_loc":{"lat":"53.359296","lon":"11.7411376"}},{"name":"Johann Friedrich Klöffler","birth_year":"1725","death_year":"1790","href":"https://de.wikipedia.org/wiki/Johann_Friedrich_Kl%C3%B6ffler","birth_place":"Kassel","death_place":"Burgsteinfurt","birth_loc":{"lat":"51.3154546","lon":"9.4924096"},"death_loc":{"lat":"52.1481578","lon":"7.339098"}},{"name":"Friedrich Klose","birth_year":"1862","death_year":"1942","href":"https://de.wikipedia.org/wiki/Friedrich_Klose","birth_place":"Karlsruhe","death_place":"Ruvigliana","birth_loc":{"lat":"49.0068705","lon":"8.4034195"},"death_loc":{"lat":"46.0037574","lon":"8.978944"}},{"name":"Manfred Kluge","birth_year":"1928","death_year":"1971","href":"https://de.wikipedia.org/wiki/Manfred_Kluge","birth_place":"Unna","death_place":"Mölln","birth_loc":{"lat":"51.5348835","lon":"7.689014"},"death_loc":{"lat":"53.62892","lon":"10.6880174"}},{"name":"August Klughardt","birth_year":"1847","death_year":"1902","href":"https://de.wikipedia.org/wiki/August_Klughardt","birth_place":"Köthen ","death_place":"Dessau[1]","birth_loc":{"lat":"51.7500048","lon":"11.9666985"},"death_loc":{"lat":"30.389759","lon":"-97.646699"}},{"name":"Armin Knab","birth_year":"1881","death_year":"1951","href":"https://de.wikipedia.org/wiki/Armin_Knab","birth_place":"Neuschleichach","death_place":"Bad Wörishofen","birth_loc":{"lat":"49.9416006","lon":"10.5867432"},"death_loc":{"lat":"48.0059852","lon":"10.5921263"}},{"name":"Ernst-Lothar von Knorr","birth_year":"1896","death_year":"1973","href":"https://de.wikipedia.org/wiki/Ernst-Lothar_von_Knorr","birth_place":"Eitorf/Sieg","death_place":"Heidelberg","birth_loc":{"lat":"50.7710301","lon":"7.450353"},"death_loc":{"lat":"49.4093582","lon":"8.694724"}},{"name":"Iwan Knorr","birth_year":"1853","death_year":"1916","href":"https://de.wikipedia.org/wiki/Iwan_Knorr","birth_place":"Mewe b. Marienwerder","death_place":"Frankfurt am Main","birth_loc":{"lat":"52.842395","lon":"13.5994"},"death_loc":{"lat":"50.1106444","lon":"8.6820917"}},{"name":"Detlef Kobjela (sorbischer Komponist)","birth_year":"1944","death_year":"2018","href":"https://de.wikipedia.org/wiki/Detlef_Kobjela","birth_place":"Willmersdorf bei Cottbus","death_place":"Bautzen","birth_loc":{"lat":"51.8051881","lon":"14.3812985"},"death_loc":{"lat":"51.1813907","lon":"14.4275735"}},{"name":"Günter Kochan","birth_year":"1930","death_year":"2009","href":"https://de.wikipedia.org/wiki/G%C3%BCnter_Kochan","birth_place":"Luckau","death_place":"Neuruppin","birth_loc":{"lat":"51.8524163","lon":"13.7150055"},"death_loc":{"lat":"52.9243859","lon":"12.8092919"}},{"name":"Korla Awgust Kocor (sorbischer Komponist)","birth_year":"1822","death_year":"1904","href":"https://de.wikipedia.org/wiki/Korla_Awgust_Kocor","birth_place":"Berge bei Großpostwitz","death_place":"Kittlitz","birth_loc":{"lat":"51.1165189","lon":"14.4300535"},"death_loc":{"lat":"53.6641524","lon":"10.9153411"}},{"name":"Christian Friedrich Koennecke","birth_year":"1876","death_year":"1960","href":"https://de.wikipedia.org/wiki/Christian_Friedrich_Koennecke","birth_place":" New York","death_place":"Schwaz","birth_loc":{"lat":"40.7127281","lon":"-74.0060152"},"death_loc":{"lat":"47.3449529","lon":"11.7084253"}},{"name":"Walter Kollo","birth_year":"1878","death_year":"1940","href":"https://de.wikipedia.org/wiki/Walter_Kollo","birth_place":"Neidenburg","death_place":"Berlin","birth_loc":{"lat":"53.3613838","lon":"20.4275719"},"death_loc":{"lat":"52.5170365","lon":"13.3888599"}},{"name":"Willi Kollo","birth_year":"1904","death_year":"1988","href":"https://de.wikipedia.org/wiki/Willi_Kollo","birth_place":"Königsberg","death_place":"West-Berlin","birth_loc":{"lat":"54.710128","lon":"20.5105838"},"death_loc":{"lat":"44.0742673","lon":"-64.5827869"}},{"name":"Justin Heinrich Knecht","birth_year":"1752","death_year":"1817","href":"https://de.wikipedia.org/wiki/Justin_Heinrich_Knecht","birth_place":"Biberach an der Riß","death_place":"Biberach an der Riß","birth_loc":{"lat":"48.0984413","lon":"9.7899938"},"death_loc":{"lat":"48.0984413","lon":"9.7899938"}},{"name":"Karl Kraft","birth_year":"1903","death_year":"1978","href":"https://de.wikipedia.org/wiki/Karl_Kraft","birth_place":"München-Sendling","death_place":"Augsburg","birth_loc":{"lat":"48.1245878","lon":"11.5128173"},"death_loc":{"lat":"48.3668041","lon":"10.8986971"}},{"name":"Joseph Martin Kraus","birth_year":"1756","death_year":"1792","href":"https://de.wikipedia.org/wiki/Joseph_Martin_Kraus","birth_place":"Miltenberg","death_place":"Stockholm","birth_loc":{"lat":"49.7017584","lon":"9.2559718"},"death_loc":{"lat":"59.3251172","lon":"18.0710935"}},{"name":"Bjarnat Krawc (sorbischer Komponist)","birth_year":"1861","death_year":"1948","href":"https://de.wikipedia.org/wiki/Bjarnat_Krawc","birth_place":"Milstrich","death_place":"Varnsdorf","birth_loc":{"lat":"51.32160275","lon":"14.16075994891"},"death_loc":{"lat":"50.9124244","lon":"14.6194058"}},{"name":"Edmund Kretschmer","birth_year":"1830","death_year":"1908","href":"https://de.wikipedia.org/wiki/Edmund_Kretschmer","birth_place":"Ostritz","death_place":"Dresden","birth_loc":{"lat":"51.014934","lon":"14.9327975"},"death_loc":{"lat":"51.0493286","lon":"13.7381437"}},{"name":"Günther Kretzschmar","birth_year":"1929","death_year":"1986","href":"https://de.wikipedia.org/wiki/G%C3%BCnther_Kretzschmar","birth_place":"Hohenstein-Ernstthal","death_place":"Bremen","birth_loc":{"lat":"50.800473","lon":"12.7069527"},"death_loc":{"lat":"53.0758196","lon":"8.8071646"}},{"name":"Conradin Kreutzer","birth_year":"1780","death_year":"1849","href":"https://de.wikipedia.org/wiki/Conradin_Kreutzer","birth_place":"der Thalmühle bei Meßkirch im Fürstentum Fürstenberg","death_place":"Riga"},{"name":"Johann Philipp Krieger","birth_year":"1649","death_year":"1725","href":"https://de.wikipedia.org/wiki/Johann_Philipp_Krieger","birth_place":"Nürnberg","death_place":"Weißenfels","birth_loc":{"lat":"49.453872","lon":"11.077298"},"death_loc":{"lat":"51.1999793","lon":"11.9667857"}},{"name":"Arnold Krug","birth_year":"1849","death_year":"1904","href":"https://de.wikipedia.org/wiki/Arnold_Krug","birth_place":"Hamburg","death_place":"Hamburg","birth_loc":{"lat":"53.550341","lon":"10.000654"},"death_loc":{"lat":"53.550341","lon":"10.000654"}},{"name":"Paul Kühmstedt","birth_year":"1908","death_year":"1996","href":"https://de.wikipedia.org/wiki/Paul_K%C3%BChmstedt","birth_place":"Ulm","death_place":"Ulm[1]","birth_loc":{"lat":"48.3974003","lon":"9.9934336"},"death_loc":{"lat":"-26.787986","lon":"153.133087"}},{"name":"Eduard Künneke","birth_year":"1885","death_year":"1953","href":"https://de.wikipedia.org/wiki/Eduard_K%C3%BCnneke","birth_place":"Emmerich","death_place":"Berlin","birth_loc":{"lat":"51.8322137","lon":"6.2428283"},"death_loc":{"lat":"52.5170365","lon":"13.3888599"}},{"name":"Hubert Ferdinand Kufferath","birth_year":"1818","death_year":"1896","href":"https://de.wikipedia.org/wiki/Hubert_Ferdinand_Kufferath","birth_place":"Mülheim an der Ruhr","death_place":"Brüssel","birth_loc":{"lat":"51.4272925","lon":"6.8829192"},"death_loc":{"lat":"50.8436709","lon":"4.36743669338796"}},{"name":"Johann Hermann Kufferath","birth_year":"1797","death_year":"1864","href":"https://de.wikipedia.org/wiki/Johann_Hermann_Kufferath","birth_place":"Mülheim an der Ruhr","death_place":"Wiesbaden","birth_loc":{"lat":"51.4272925","lon":"6.8829192"},"death_loc":{"lat":"50.0820384","lon":"8.2416556"}},{"name":"Louis Kufferath","birth_year":"1811","death_year":"1882","href":"https://de.wikipedia.org/wiki/Louis_Kufferath","birth_place":"Mülheim an der Ruhr","death_place":"Brüssel","birth_loc":{"lat":"51.4272925","lon":"6.8829192"},"death_loc":{"lat":"50.8436709","lon":"4.36743669338796"}},{"name":"Friedrich Kuhlau","birth_year":"1786","death_year":"1832","href":"https://de.wikipedia.org/wiki/Friedrich_Kuhlau","birth_place":"Uelzen","death_place":"Kopenhagen","birth_loc":{"lat":"52.9840679","lon":"10.5385881546504"},"death_loc":{"lat":"55.6867243","lon":"12.5700724"}},{"name":"Johann Kuhnau","birth_year":"1660","death_year":"1722","href":"https://de.wikipedia.org/wiki/Johann_Kuhnau","birth_place":"Geising","death_place":"Leipzig","birth_loc":{"lat":"50.7564882","lon":"13.7938278"},"death_loc":{"lat":"51.3406321","lon":"12.3747329"}},{"name":"August Kühnel","birth_year":"1645","death_year":"1700","href":"https://de.wikipedia.org/wiki/August_K%C3%BChnel","birth_place":"Delmenhorst","death_place":"","birth_loc":{"lat":"53.0528092","lon":"8.6294626"}},{"name":"Felicitas Kukuck","birth_year":"1914","death_year":"2001","href":"https://de.wikipedia.org/wiki/Felicitas_Kukuck","birth_place":"Hamburg","death_place":"Hamburg","birth_loc":{"lat":"53.550341","lon":"10.000654"},"death_loc":{"lat":"53.550341","lon":"10.000654"}},{"name":"Adolph Kullak","birth_year":"1823","death_year":"1862","href":"https://de.wikipedia.org/wiki/Adolph_Kullak","birth_place":"Meseritz","death_place":"Berlin","birth_loc":{"lat":"52.4448261","lon":"15.578637"},"death_loc":{"lat":"52.5170365","lon":"13.3888599"}},{"name":"Ernst Kullak","birth_year":"1855","death_year":"1914","href":"https://de.wikipedia.org/wiki/Ernst_Kullak","birth_place":"Berlin[1]","death_place":"Berlin[1]","birth_loc":{"lat":"19.429427","lon":"-99.158168"},"death_loc":{"lat":"19.429427","lon":"-99.158168"}},{"name":"Franz Kullak","birth_year":"1844","death_year":"1913","href":"https://de.wikipedia.org/wiki/Franz_Kullak","birth_place":"Berlin","death_place":"Berlin","birth_loc":{"lat":"52.5170365","lon":"13.3888599"},"death_loc":{"lat":"52.5170365","lon":"13.3888599"}},{"name":"Theodor Kullak","birth_year":"1818","death_year":"1882","href":"https://de.wikipedia.org/wiki/Theodor_Kullak","birth_place":"Krotoschin bei Posen","death_place":"Berlin"},{"name":"Caspar Kummer","birth_year":"1795","death_year":"1870","href":"https://de.wikipedia.org/wiki/Caspar_Kummer","birth_place":"Erlau bei Schleusingen","death_place":"Coburg","birth_loc":{"lat":"50.5419842","lon":"10.7535022"},"death_loc":{"lat":"50.258112","lon":"10.964463"}},{"name":"Friedrich August Kummer der Jüngere","birth_year":"1797","death_year":"1879","href":"https://de.wikipedia.org/wiki/Friedrich_August_Kummer_der_J%C3%BCngere","birth_place":"Meiningen","death_place":"Dresden","birth_loc":{"lat":"50.57342505","lon":"10.4283711376078"},"death_loc":{"lat":"51.0493286","lon":"13.7381437"}},{"name":"Paul Kurzbach","birth_year":"1902","death_year":"1997","href":"https://de.wikipedia.org/wiki/Paul_Kurzbach","birth_place":"Hohndorf","death_place":"Chemnitz","birth_loc":{"lat":"50.7460268","lon":"12.6688866"},"death_loc":{"lat":"50.8322608","lon":"12.9252977"}},{"name":"Ernst Kutzer","birth_year":"1918","death_year":"2008","href":"https://de.wikipedia.org/wiki/Ernst_Kutzer_(Komponist)","birth_place":"München","death_place":"Pentling","birth_loc":{"lat":"48.1371079","lon":"11.5753822"},"death_loc":{"lat":"48.9817637","lon":"12.0580064"}},{"name":"Hans Lachenberger","birth_year":"1831","death_year":"1891","href":"https://de.wikipedia.org/wiki/Hans_Lachenberger","birth_place":"Torgau","death_place":"Lübeck","birth_loc":{"lat":"51.5581272","lon":"13.0046538"},"death_loc":{"lat":"53.866444","lon":"10.684738"}},{"name":"Franz Lachner","birth_year":"1803","death_year":"1890","href":"https://de.wikipedia.org/wiki/Franz_Lachner","birth_place":"Rain","death_place":"München","birth_loc":{"lat":"48.6901192","lon":"10.9153669"},"death_loc":{"lat":"48.1371079","lon":"11.5753822"}},{"name":"Ignaz Lachner","birth_year":"1807","death_year":"1895","href":"https://de.wikipedia.org/wiki/Ignaz_Lachner","birth_place":"Rain","death_place":"Hannover","birth_loc":{"lat":"48.6901192","lon":"10.9153669"},"death_loc":{"lat":"52.3744779","lon":"9.7385532"}},{"name":"Vincenz Lachner","birth_year":"1811","death_year":"1893","href":"https://de.wikipedia.org/wiki/Vincenz_Lachner","birth_place":"Rain am Lech","death_place":"Karlsruhe","birth_loc":{"lat":"48.69596135","lon":"10.927747"},"death_loc":{"lat":"49.0068705","lon":"8.4034195"}},{"name":"Günter Lampe","birth_year":"1925","death_year":"2003","href":"https://de.wikipedia.org/wiki/G%C3%BCnter_Lampe","birth_place":"Weimar","death_place":"Weimar","birth_loc":{"lat":"50.9802813","lon":"11.3290855"},"death_loc":{"lat":"50.9802813","lon":"11.3290855"}},{"name":"Gustav Lange","birth_year":"1830","death_year":"1889","href":"https://de.wikipedia.org/wiki/Gustav_Lange_(Komponist,_1830)","birth_place":"Schwerstedt","death_place":"Wernigerode","birth_loc":{"lat":"51.156188","lon":"10.9207987"},"death_loc":{"lat":"51.8344172","lon":"10.7862526"}},{"name":"Friedrich Leinert","birth_year":"1908","death_year":"1975","href":"https://de.wikipedia.org/wiki/Friedrich_Leinert","birth_place":"Oppeln","death_place":"Emmendingen","birth_loc":{"lat":"50.6668184","lon":"17.9236408"},"death_loc":{"lat":"48.1206565","lon":"7.850993"}},{"name":"Willi Leininger ","birth_year":"1907","death_year":"1971","href":"https://de.wikipedia.org/wiki/Willi_Leininger","birth_place":"Langen ","death_place":"Augsburg","birth_loc":{"lat":"49.99029585","lon":"8.66577469122567"},"death_loc":{"lat":"48.3668041","lon":"10.8986971"}},{"name":"Ulrich Leyendecker","birth_year":"1946","death_year":"2018","href":"https://de.wikipedia.org/wiki/Ulrich_Leyendecker","birth_place":"Wuppertal","death_place":"Bonn[1]","birth_loc":{"lat":"51.264018","lon":"7.1780374"},"death_loc":{"lat":"14.379034","lon":"120.93739"}},{"name":"Paul Lincke","birth_year":"1866","death_year":"1946","href":"https://de.wikipedia.org/wiki/Paul_Lincke","birth_place":"Berlin","death_place":"Hahnenklee-Bockswiese","birth_loc":{"lat":"52.5170365","lon":"13.3888599"},"death_loc":{"lat":"51.8514838","lon":"10.3278355"}},{"name":"Peter Joseph von Lindpaintner","birth_year":"1791","death_year":"1856","href":"https://de.wikipedia.org/wiki/Peter_Joseph_von_Lindpaintner","birth_place":"Koblenz","death_place":"Nonnenhorn am Bodensee","birth_loc":{"lat":"50.3533278","lon":"7.5943951"},"death_loc":{"lat":"47.5746467","lon":"9.6109806"}},{"name":"Carl Loewe","birth_year":"1796","death_year":"1869","href":"https://de.wikipedia.org/wiki/Carl_Loewe","birth_place":"Löbejün[1]","death_place":"Kiel"},{"name":"Heinz Martin Lonquich","birth_year":"1937","death_year":"2014","href":"https://de.wikipedia.org/wiki/Heinz_Martin_Lonquich","birth_place":"Trier","death_place":"Köln","birth_loc":{"lat":"49.7596208","lon":"6.6441878"},"death_loc":{"lat":"50.938361","lon":"6.959974"}},{"name":"Albert Lortzing","birth_year":"1801","death_year":"1851","href":"https://de.wikipedia.org/wiki/Albert_Lortzing","birth_place":"Berlin","death_place":"Berlin","birth_loc":{"lat":"52.5170365","lon":"13.3888599"},"death_loc":{"lat":"52.5170365","lon":"13.3888599"}},{"name":"Mark Lothar","birth_year":"1902","death_year":"1985","href":"https://de.wikipedia.org/wiki/Mark_Lothar","birth_place":"Berlin","death_place":"München","birth_loc":{"lat":"52.5170365","lon":"13.3888599"},"death_loc":{"lat":"48.1371079","lon":"11.5753822"}},{"name":"Vincent Lübeck","birth_year":"1654","death_year":"1740","href":"https://de.wikipedia.org/wiki/Vincent_L%C3%BCbeck","birth_place":"Padingbüttel","death_place":"Hamburg","birth_loc":{"lat":"53.6985796","lon":"8.525856"},"death_loc":{"lat":"53.550341","lon":"10.000654"}},{"name":"Jakob Heinrich Lützel","birth_year":"1823","death_year":"1899","href":"https://de.wikipedia.org/wiki/Jakob_Heinrich_L%C3%BCtzel","birth_place":"Iggelheim","death_place":"Zweibrücken","birth_loc":{"lat":"49.3660057","lon":"8.3088794"},"death_loc":{"lat":"49.2535955","lon":"7.37062743737628"}},{"name":"Konstantin Mach","birth_year":"1915","death_year":"1996","href":"https://de.wikipedia.org/wiki/Konstantin_Mach","birth_place":"Brünnlitz","death_place":"Rohr","birth_loc":{"lat":"49.6311974","lon":"16.5199285174664"},"death_loc":{"lat":"48.6961101","lon":"7.5470504"}},{"name":"Curt Mahr","birth_year":"1907","death_year":"1978","href":"https://de.wikipedia.org/wiki/Curt_Mahr","birth_place":"Schwarza an der Saale","death_place":"Niedernhausen bei Wiesbaden","birth_loc":{"lat":"50.6916017","lon":"11.3357556"},"death_loc":{"lat":"50.1530618","lon":"8.3092738"}},{"name":"Hans-Martin Majewski","birth_year":"1911","death_year":"1997","href":"https://de.wikipedia.org/wiki/Hans-Martin_Majewski","birth_place":"Schlawe","death_place":"Bötersen","birth_loc":{"lat":"54.3629824","lon":"16.6789071"},"death_loc":{"lat":"53.1371003","lon":"9.3145469"}},{"name":"Ernest Majo","birth_year":"1916","death_year":"2002","href":"https://de.wikipedia.org/wiki/Ernest_Majo","birth_place":"Herne","death_place":"Schramberg","birth_loc":{"lat":"51.5380394","lon":"7.219985"},"death_loc":{"lat":"48.225478","lon":"8.3852168"}},{"name":"Wilhelm Maler","birth_year":"1902","death_year":"1976","href":"https://de.wikipedia.org/wiki/Wilhelm_Maler","birth_place":"Heidelberg","death_place":"Hamburg","birth_loc":{"lat":"49.4093582","lon":"8.694724"},"death_loc":{"lat":"53.550341","lon":"10.000654"}},{"name":"Ursula Mamlok","birth_year":"1923","death_year":"2016","href":"https://de.wikipedia.org/wiki/Ursula_Mamlok","birth_place":"Berlin","death_place":"Berlin","birth_loc":{"lat":"52.5170365","lon":"13.3888599"},"death_loc":{"lat":"52.5170365","lon":"13.3888599"}},{"name":"Dietrich Manicke","birth_year":"1923","death_year":"2013","href":"https://de.wikipedia.org/wiki/Dietrich_Manicke","birth_place":"Wurzen","death_place":"Detmold","birth_loc":{"lat":"51.3709574","lon":"12.7410574"},"death_loc":{"lat":"51.936284","lon":"8.8791526"}},{"name":"Heinrich Marschner","birth_year":"1795","death_year":"1861","href":"https://de.wikipedia.org/wiki/Heinrich_Marschner","birth_place":"Zittau","death_place":"Hannover","birth_loc":{"lat":"50.8959142","lon":"14.8064417"},"death_loc":{"lat":"52.3744779","lon":"9.7385532"}},{"name":"Hans Martin","birth_year":"1916","death_year":"2007","href":"https://de.wikipedia.org/wiki/Hans_Martin_(Komponist)","birth_place":"Erlenbach bei Marktheidenfeld","death_place":"Würzburg","birth_loc":{"lat":"49.8193896","lon":"9.6276227"},"death_loc":{"lat":"49.79245","lon":"9.932966"}},{"name":"Adolf Bernhard Marx","birth_year":"1795","death_year":"1866","href":"https://de.wikipedia.org/wiki/Adolf_Bernhard_Marx","birth_place":"Halle ","death_place":"Berlin","birth_loc":{"lat":"51.4825041","lon":"11.9705452"},"death_loc":{"lat":"52.5170365","lon":"13.3888599"}},{"name":"Hans-Joachim Marx","birth_year":"1923","death_year":"2010","href":"https://de.wikipedia.org/wiki/Hans-Joachim_Marx_(Komponist)","birth_place":"Anklam","death_place":"Flensburg","birth_loc":{"lat":"53.8560526","lon":"13.688091"},"death_loc":{"lat":"54.7833021","lon":"9.4333264"}},{"name":"Karl Marx","birth_year":"1897","death_year":"1985","href":"https://de.wikipedia.org/wiki/Karl_Marx_(Komponist)","birth_place":"München","death_place":"Stuttgart","birth_loc":{"lat":"48.1371079","lon":"11.5753822"},"death_loc":{"lat":"48.7784485","lon":"9.1800132"}},{"name":"Eduard Marxsen","birth_year":"1806","death_year":"1887","href":"https://de.wikipedia.org/wiki/Eduard_Marxsen","birth_place":"Nienstedten","death_place":"","birth_loc":{"lat":"53.5524166","lon":"9.8443521"}},{"name":"Johann Mattheson","birth_year":"1681","death_year":"1764","href":"https://de.wikipedia.org/wiki/Johann_Mattheson","birth_place":"Hamburg","death_place":"Hamburg","birth_loc":{"lat":"53.550341","lon":"10.000654"},"death_loc":{"lat":"53.550341","lon":"10.000654"}},{"name":"Arnold Maury","birth_year":"1927","death_year":"2018","href":"https://de.wikipedia.org/wiki/Arnold_Maury","birth_place":"Kiel","death_place":"Kiel","birth_loc":{"lat":"54.3227085","lon":"10.135555"},"death_loc":{"lat":"54.3227085","lon":"10.135555"}},{"name":"Emilie Mayer","birth_year":"1812","death_year":"1883","href":"https://de.wikipedia.org/wiki/Emilie_Mayer","birth_place":"Friedland ","death_place":"Berlin","birth_loc":{"lat":"53.6716022","lon":"13.5487647"},"death_loc":{"lat":"52.5170365","lon":"13.3888599"}},{"name":"Johann Simon Mayr","birth_year":"1763","death_year":"1845","href":"https://de.wikipedia.org/wiki/Johann_Simon_Mayr","birth_place":"Mendorf bei Altmannstein","death_place":"Bergamo","birth_loc":{"lat":"48.8720129","lon":"11.6048745"},"death_loc":{"lat":"45.7566557","lon":"9.75421920086225"}},{"name":"Tilo Medek","birth_year":"1940","death_year":"2006","href":"https://de.wikipedia.org/wiki/Tilo_Medek","birth_place":"Jena","death_place":"Duderstadt","birth_loc":{"lat":"50.9281717","lon":"11.5879359"},"death_loc":{"lat":"51.5123672","lon":"10.2610699"}},{"name":"Fanny Zippora Mendelssohn","birth_year":"1805","death_year":"1847","href":"https://de.wikipedia.org/wiki/Fanny_Hensel","birth_place":"Hamburg","death_place":"Berlin","birth_loc":{"lat":"53.550341","lon":"10.000654"},"death_loc":{"lat":"52.5170365","lon":"13.3888599"}},{"name":"Felix Mendelssohn Bartholdy","birth_year":"1809","death_year":"1847","href":"https://de.wikipedia.org/wiki/Felix_Mendelssohn_Bartholdy","birth_place":"Hamburg","death_place":"Leipzig","birth_loc":{"lat":"53.550341","lon":"10.000654"},"death_loc":{"lat":"51.3406321","lon":"12.3747329"}},{"name":"Adolph Methfessel","birth_year":"1807","death_year":"1878","href":"https://de.wikipedia.org/wiki/Adolph_Methfessel","birth_place":"Mühlhausen","death_place":"Bern","birth_loc":{"lat":"51.22444175","lon":"10.4760776072664"},"death_loc":{"lat":"46.9482713","lon":"7.4514512"}},{"name":"Albert Methfessel","birth_year":"1785","death_year":"1869","href":"https://de.wikipedia.org/wiki/Albert_Methfessel","birth_place":"Stadtilm","death_place":"Heckenbeck","birth_loc":{"lat":"50.7740778","lon":"11.0805466"},"death_loc":{"lat":"51.8861066","lon":"9.9620103"}},